id,key,status,dirty_address,clean_address,city,state,zip_code,tax_map_val,latitude,longitude,created_at,updated_at
1,"1603CEDARHILLRD061","VALID","1603 CEDAR HILL RD","1603 CEDAR HILL RD, Charlottesville, VA ",,,,"061",38.0591740,-78.4987710,"2009-08-26 03:25:06","2009-08-26 03:26:58"
2,"1265CROZETAVE056","VALID","1265 CROZET AVE","1265 CROZET AVE, Crozet, VA ",,,,"056",38.0704690,-78.6997530,"2009-08-26 03:25:06","2009-08-26 03:26:49"
3,"FLUVANNA7","APPROXIMATE","FLUVANNA 7","FLUVANNA 7, Charlottesville, VA ",,,,"000",37.8927720,-78.3413100,"2009-08-26 03:25:06","2009-08-26 03:26:44"
4,"1242CEDARSCT060","APPROXIMATE","1242 CEDARS CT","1242 CEDARS CT, Charlottesville, VA ",,,,"060",38.0626069,-78.5205552,"2009-08-26 03:25:06","2009-08-26 03:26:37"
5,"803HENRYAVE077","VALID","803 HENRY AVE","803 HENRY AVE, Charlottesville, VA ",,,,"077",38.0390990,-78.4851820,"2009-08-26 03:25:07","2009-08-26 03:26:42"
6,"1935ARLINGTONBLVD060","VALID","1935 ARLINGTON BLVD","1935 ARLINGTON BLVD, Charlottesville, VA ",,,,"060",38.0482526,-78.5044842,"2009-08-26 03:25:07","2009-08-26 03:26:40"
7,"200EMMETSTS061","APPROXIMATE","200 EMMET ST S","200 EMMET ST S, Charlottesville, VA ",,,,"061",38.0626068,-78.4788775,"2009-08-26 03:25:07","2009-08-26 03:26:46"
8,"2111MICHIEDR061","VALID","2111 MICHIE DR","2111 MICHIE DR, Charlottesville, VA ",,,,"061",38.0609580,-78.4864710,"2009-08-26 03:25:07","2009-08-26 03:26:56"
9,"2025MICHIEDR061","VALID","2025 MICHIE DR","2025 MICHIE DR, Charlottesville, VA ",,,,"061",38.0595760,-78.4879310,"2009-08-26 03:25:07","2009-08-26 03:26:54"
10,"5THSTSWWMAINST077","APPROXIMATE","5TH ST SW&W MAIN ST","5TH ST SW & W MAIN ST, Charlottesville, VA ",,,,"077",38.0210052,-78.4788893,"2009-08-26 03:25:07","2009-08-26 03:26:51"
11,"1242GAZEBOCT061","VALID","1242 GAZEBO CT","1242 GAZEBO CT, Charlottesville, VA ",,,,"061",38.0699700,-78.4790060,"2009-08-26 03:25:07","2009-08-26 03:27:21"
12,"322WESTMINSTERRD060","VALID","322 WESTMINSTER RD","322 WESTMINSTER RD, Charlottesville, VA ",,,,"060",38.0558860,-78.5141200,"2009-08-26 03:25:07","2009-08-26 03:27:00"
13,"56MISTYMOUNTAINRD071","VALID","56 MISTY MOUNTAIN RD","56 MISTY MOUNTAIN RD, Midway, VA ",,,,"071",38.0384334,-78.7392763,"2009-08-26 03:25:07","2009-08-26 03:27:02"
14,"975HILTONHEIGHTSRD045","VALID","975 HILTON HEIGHTS RD","975 HILTON HEIGHTS RD, Charlottesville, VA ",,,,"045",38.0974390,-78.4671040,"2009-08-26 03:25:07","2009-08-26 03:27:09"
15,"2206NBERKSHIRERD061","VALID","2206 N BERKSHIRE RD","2206 N BERKSHIRE RD, Charlottesville, VA ",,,,"061",38.0610450,-78.4951750,"2009-08-26 03:25:07","2009-08-26 03:27:16"
16,"1150NORTHWESTDR061","VALID","1150 NORTHWEST DR","1150 NORTHWEST DR, Charlottesville, VA ",,,,"061",38.0693749,-78.4940739,"2009-08-26 03:25:08","2009-08-26 03:27:05"
17,"250PANTOPSMOUNTAINRD078","VALID","250 PANTOPS MOUNTAIN RD","250 PANTOPS MOUNTAIN RD, Charlottesville, VA ",,,,"078",38.0306783,-78.4379902,"2009-08-26 03:25:08","2009-08-26 03:27:35"
18,"2125THSTSW077","VALID","212 5TH ST SW","212 5TH ST SW, Charlottesville, VA ",,,,"077",38.0294540,-78.4880120,"2009-08-26 03:25:08","2009-08-26 03:27:07"
19,"420OAKST077","VALID","420 OAK ST","420 OAK ST, Charlottesville, VA ",,,,"077",38.0279370,-78.4893310,"2009-08-26 03:25:08","2009-08-26 03:27:11"
20,"MONTICELLORDCARLTONAVE077","APPROXIMATE","MONTICELLO RD&CARLTON AVE","MONTICELLO RD & CARLTON AVE, Charlottesville, VA ",,,,"077",38.0210052,-78.4788893,"2009-08-26 03:25:08","2009-08-26 03:27:38"
21,"1611RIOHILLDR061","VALID","1611 RIO HILL DR","1611 RIO HILL DR, Charlottesville, VA ",,,,"061",38.0805033,-78.4694643,"2009-08-26 03:25:08","2009-08-26 03:27:14"
22,"15THSTNWVIRGINIAAVE077","APPROXIMATE","15TH ST NW&VIRGINIA AVE","15TH ST NW & VIRGINIA AVE, Charlottesville, VA ",,,,"077",38.0210052,-78.4788893,"2009-08-26 03:25:08","2009-08-26 03:27:19"
23,"1505UNIVERSITYAV076","VALID","1505 UNIVERSITY AV","1505 UNIVERSITY AV, Charlottesville, VA ",,,,"076",38.0367284,-78.5033709,"2009-08-26 03:25:08","2009-08-26 03:27:23"
24,"95BICEDRUVA076","APPROXIMATE","95 BICE DR - UVA","95 BICE DR - UVA, Charlottesville, VA ",,,,"076",38.0210053,-78.5205438,"2009-08-26 03:25:08","2009-08-26 03:27:26"
25,"1000RIORDE061","VALID","1000 RIO RD E","1000 RIO RD E, Charlottesville, VA ",,,,"061",38.0636941,-78.4631596,"2009-08-26 03:25:08","2009-08-26 03:27:28"
26,"420MCCORMICKRDUVA076","APPROXIMATE","420 MCCORMICK RD - UVA","420 MCCORMICK RD - UVA, Charlottesville, VA ",,,,"076",38.0210053,-78.5205438,"2009-08-26 03:25:08","2009-08-26 03:27:49"
27,"2522THOMASJEFFERSONPKWY093","VALID","2522 THOMAS JEFFERSON PKWY","2522 THOMAS JEFFERSON PKWY, Ashmere, VA ",,,,"093",37.9713032,-78.3988536,"2009-08-26 03:25:08","2009-08-26 03:27:30"
28,"2600BARRACKSRD060","VALID","2600 BARRACKS RD","2600 BARRACKS RD, Charlottesville, VA ",,,,"060",38.0626514,-78.5132235,"2009-08-26 03:25:09","2009-08-26 03:27:47"
29,"2194OLDLYNCHBURGRD101","APPROXIMATE","2194 OLD LYNCHBURG RD","2194 OLD LYNCHBURG RD, Redland, VA ",,,,"101",37.9377858,-78.5621290,"2009-08-26 03:25:09","2009-08-26 03:27:32"
30,"111TURTLECREEKRD061","VALID","111 TURTLE CREEK RD","111 TURTLE CREEK RD, Charlottesville, VA ",,,,"061",38.0705150,-78.4966910,"2009-08-26 03:25:09","2009-08-26 03:27:42"
31,"1611MADISONAVE077","APPROXIMATE","1611 MADISON AVE","1611 MADISON AVE, Charlottesville, VA ",,,,"077",38.0210052,-78.4788893,"2009-08-26 03:25:09","2009-08-26 03:28:04"
32,"2304IVYRDUVA060","VALID","2304 IVY RD - UVA","2304 IVY RD - UVA, Charlottesville, VA ",,,,"060",38.0528900,-78.5102320,"2009-08-26 03:25:09","2009-08-26 03:27:40"
33,"3933ROLLINGRD104","VALID","3933 ROLLING RD","3933 ROLLING RD, Overton, VA ",,,,"104",37.9359765,-78.4543240,"2009-08-26 03:25:12","2009-08-26 03:27:51"
34,"120TURTLECREEKRD061","VALID","120 TURTLE CREEK RD","120 TURTLE CREEK RD, Charlottesville, VA ",,,,"061",38.0688440,-78.4946380,"2009-08-26 03:25:12","2009-08-26 03:27:44"
35,"25HANCOCKDRUVA076","APPROXIMATE","25 HANCOCK DR - UVA","25 HANCOCK DR - UVA, Charlottesville, VA ",,,,"076",38.0210053,-78.5205438,"2009-08-26 03:25:12","2009-08-26 03:27:53"
36,"1400MONTICELLORD077","VALID","1400 MONTICELLO RD","1400 MONTICELLO RD, Charlottesville, VA ",,,,"077",38.0193570,-78.4722980,"2009-08-26 03:25:12","2009-08-26 03:27:56"
37,"4505OLDFIELDSRD029","APPROXIMATE","4505 OLD FIELDS RD","4505 OLD FIELDS RD, Burnley, VA ",,,,"029",38.1456619,-78.3119575,"2009-08-26 03:25:12","2009-08-26 03:28:18"
38,"496FLOYDDRUVA076","APPROXIMATE","496 FLOYD DR - UVA","496 FLOYD DR - UVA, Charlottesville, VA ",,,,"076",38.0210053,-78.5205438,"2009-08-26 03:25:12","2009-08-26 03:28:07"
39,"1149SEMINOLETRL061","VALID","1149 SEMINOLE TRL","1149 SEMINOLE TRL, Charlottesville, VA ",,,,"061",38.0692427,-78.4850145,"2009-08-26 03:25:13","2009-08-26 03:27:58"
40,"500CRESTWOODDR060","VALID","500 CRESTWOOD DR","500 CRESTWOOD DR, Charlottesville, VA ",,,,"060",38.0502549,-78.5172678,"2009-08-26 03:25:13","2009-08-26 03:28:00"
41,"220SOUTHPANTOPSDR078","VALID","220 SOUTH PANTOPS DR","220 SOUTH PANTOPS DR, Charlottesville, VA ",,,,"078",38.0276210,-78.4502330,"2009-08-26 03:25:13","2009-08-26 03:28:09"
42,"295MASSIERDUVA060","APPROXIMATE","295 MASSIE RD - UVA","295 MASSIE RD - UVA, Charlottesville, VA ",,,,"060",38.0626069,-78.5205552,"2009-08-26 03:25:13","2009-08-26 03:28:02"
43,"40WILTONPASTURELN078","VALID","40 WILTON PASTURE LN","40 WILTON PASTURE LN, Charlottesville, VA ",,,,"078",38.0369109,-78.4489904,"2009-08-26 03:25:13","2009-08-26 03:28:11"
44,"1014LOCUSTAVE077","VALID","1014 LOCUST AVE","1014 LOCUST AVE, Charlottesville, VA ",,,,"077",38.0407350,-78.4619550,"2009-08-26 03:25:13","2009-08-26 03:28:29"
45,"2416JEFFERSONPARKAVE032","APPROXIMATE","2416 JEFFERSON PARK AVE","2416 JEFFERSON PARK AVE, Crimora, VA ",,,,"032",38.1455028,-78.7709225,"2009-08-26 03:25:13","2009-08-26 03:28:20"
46,"251LAKEVIEWDR061","VALID","251 LAKEVIEW DR","251 LAKEVIEW DR, Charlottesville, VA ",,,,"061",38.0817030,-78.4873700,"2009-08-26 03:25:13","2009-08-26 03:28:23"
47,"1700UNIVERSITYAVE076","VALID","1700 UNIVERSITY AVE","1700 UNIVERSITY AVE, Charlottesville, VA ",,,,"076",38.0347999,-78.5005638,"2009-08-26 03:25:13","2009-08-26 03:28:14"
48,"1206GAZEBOCT061","VALID","1206 GAZEBO CT","1206 GAZEBO CT, Charlottesville, VA ",,,,"061",38.0692290,-78.4793220,"2009-08-26 03:25:13","2009-08-26 03:28:16"
49,"8073CHESTNUTGROVERD127","VALID","8073 CHESTNUT GROVE RD","8073 CHESTNUT GROVE RD, Damon, VA ",,,,"127",37.7935010,-78.6395320,"2009-08-26 03:25:13","2009-08-26 03:28:54"
50,"735WOODLANDSRD044","VALID","735 WOODLANDS RD","735 WOODLANDS RD, Clearview Meadows, VA ",,,,"044",38.1110280,-78.5134464,"2009-08-26 03:25:14","2009-08-26 03:28:32"
51,"829MALLSIDEFORESTCT061","VALID","829 MALLSIDE FOREST CT","829 MALLSIDE FOREST CT, Charlottesville, VA ",,,,"061",38.0781113,-78.4703289,"2009-08-26 03:25:14","2009-08-26 03:28:38"
52,"6424MARKWOODRD017","APPROXIMATE","6424 MARKWOOD RD","6424 MARKWOOD RD, Patterson Store, VA ",,,,"017",38.1873931,-78.5623371,"2009-08-26 03:25:14","2009-08-26 03:28:25"
53,"216WWATERST077","VALID","216 W WATER ST","216 W WATER ST, Charlottesville, VA ",,,,"077",38.0304855,-78.4832502,"2009-08-26 03:25:14","2009-08-26 03:28:27"
54,"100WAKEFIELDCT061","VALID","100 WAKEFIELD CT","100 WAKEFIELD CT, Charlottesville, VA ",,,,"061",38.0684880,-78.4703370,"2009-08-26 03:25:14","2009-08-26 03:28:56"
55,"2034PLINYRD090","VALID","2034 PLINY RD","2034 PLINY RD, Charlottesville, VA ",,,,"090",37.9964859,-78.5264571,"2009-08-26 03:25:14","2009-08-26 03:28:43"
56,"163CHANCELLORST076","VALID","163 CHANCELLOR ST","163 CHANCELLOR ST, Charlottesville, VA ",,,,"076",38.0380800,-78.5007170,"2009-08-26 03:25:14","2009-08-26 03:28:34"
57,"575MCCORMICKRDUVA076","APPROXIMATE","575 MCCORMICK RD - UVA","575 MCCORMICK RD - UVA, Charlottesville, VA ",,,,"076",38.0210053,-78.5205438,"2009-08-26 03:25:14","2009-08-26 03:28:36"
58,"702NASSAUST077","VALID","702 NASSAU ST","702 NASSAU ST, Charlottesville, VA ",,,,"077",38.0188570,-78.4668950,"2009-08-26 03:25:14","2009-08-26 03:28:45"
59,"335WESTFIELDRD061","VALID","335 WESTFIELD RD","335 WESTFIELD RD, Charlottesville, VA ",,,,"061",38.0758470,-78.4895580,"2009-08-26 03:25:14","2009-08-26 03:28:41"
60,"100MINORCT076","VALID","100 MINOR CT","100 MINOR CT, Charlottesville, VA ",,,,"076",38.0349316,-78.5006236,"2009-08-26 03:25:14","2009-08-26 03:28:47"
61,"975EMMETSTN061","APPROXIMATE","975 EMMET ST N","975 EMMET ST N, Charlottesville, VA ",,,,"061",38.0626068,-78.4788775,"2009-08-26 03:25:14","2009-08-26 03:29:25"
62,"1400RUNNINGDEERDR094","VALID","1400 RUNNING DEER DR","1400 RUNNING DEER DR, Running Deer, VA ",,,,"094",37.9975560,-78.3607300,"2009-08-26 03:25:14","2009-08-26 03:28:50"
63,"200WMAINST077","VALID","200 W MAIN ST","200 W MAIN ST, Charlottesville, VA ",,,,"077",38.0310274,-78.4822829,"2009-08-26 03:25:14","2009-08-26 03:28:52"
64,"2001COMMONWEALTHDR061","VALID","2001 COMMONWEALTH DR","2001 COMMONWEALTH DR, Charlottesville, VA ",,,,"061",38.0670880,-78.4953460,"2009-08-26 03:25:15","2009-08-26 03:29:20"
65,"1117FORRESTST090","APPROXIMATE","1117 FORREST ST","1117 FORREST ST, Charlottesville, VA ",,,,"090",37.9794031,-78.5205323,"2009-08-26 03:25:19","2009-08-26 03:29:06"
66,"PENPARKRDRIORDE061","APPROXIMATE","PEN PARK RD&RIO RD E","PEN PARK RD & RIO RD E, Charlottesville, VA ",,,,"061",38.0626068,-78.4788775,"2009-08-26 03:25:19","2009-08-26 03:29:03"
67,"2675GATEWOODCIR046","VALID","2675 GATEWOOD CIR","2675 GATEWOOD CIR, Charlottesville, VA ",,,,"046",38.1125759,-78.4356544,"2009-08-26 03:25:19","2009-08-26 03:28:59"
68,"2195PROMISEDLANDLN089","APPROXIMATE","2195 PROMISED LAND LN","2195 PROMISED LAND LN, Arrowhead, VA ",,,,"089",37.9793886,-78.5621636,"2009-08-26 03:25:19","2009-08-26 03:29:01"
69,"915PAOLIST077","VALID","915 PAOLI ST","915 PAOLI ST, Charlottesville, VA ",,,,"077",38.0358500,-78.4921920,"2009-08-26 03:25:19","2009-08-26 03:29:36"
70,"500ALBEMARLESQ061","VALID","500 ALBEMARLE SQ","500 ALBEMARLE SQ, Charlottesville, VA ",,,,"061",38.0829340,-78.4704290,"2009-08-26 03:25:19","2009-08-26 03:29:14"
71,"RICHMONDRDPANTOPSMTNRD078","APPROXIMATE","RICHMOND RD&PANTOPS MTN RD","RICHMOND RD & PANTOPS MTN RD, Charlottesville, VA ",,,,"078",38.0209906,-78.4372349,"2009-08-26 03:25:19","2009-08-26 03:29:08"
72,"9281STSTS077","VALID","928 1ST ST S","928 1ST ST S, Charlottesville, VA ",,,,"077",38.0227213,-78.4860173,"2009-08-26 03:25:19","2009-08-26 03:29:34"
73,"2995DOCTORSXING047","VALID","2995 DOCTORS XING","2995 DOCTORS XING, Stony Point, VA ",,,,"047",38.1174680,-78.3762394,"2009-08-26 03:25:19","2009-08-26 03:29:16"
74,"100BURNETST077","APPROXIMATE","100 BURNET ST","100 BURNET ST, Charlottesville, VA ",,,,"077",38.0210052,-78.4788893,"2009-08-26 03:25:19","2009-08-26 03:29:18"
75,"300MEADEAVE077","VALID","300 MEADE AVE","300 MEADE AVE, Charlottesville, VA ",,,,"077",38.0277124,-78.4665046,"2009-08-26 03:25:19","2009-08-26 03:29:23"
76,"2332PEYTONDR061","VALID","2332 PEYTON DR","2332 PEYTON DR, Charlottesville, VA ",,,,"061",38.0733970,-78.4918380,"2009-08-26 03:25:19","2009-08-26 03:29:41"
77,"3500WMONACANDR045","VALID","3500 W MONACAN DR","3500 W MONACAN DR, Charlottesville, VA ",,,,"045",38.0966570,-78.4624700,"2009-08-26 03:25:20","2009-08-26 03:29:29"
78,"945EMMETSTN061","APPROXIMATE","945 EMMET ST N","945 EMMET ST N, Charlottesville, VA ",,,,"061",38.0626068,-78.4788775,"2009-08-26 03:25:20","2009-08-26 03:29:27"
79,"100RIDGEST077","VALID","100 RIDGE ST","100 RIDGE ST, Charlottesville, VA ",,,,"077",38.0305277,-78.4850329,"2009-08-26 03:25:20","2009-08-26 03:29:32"
80,"1445PEACHTREEDR055","VALID","1445 PEACH TREE DR","1445 PEACH TREE DR, Crozet, VA ",,,,"055",38.0754101,-78.7139502,"2009-08-26 03:25:20","2009-08-26 03:29:38"
81,"751HILLSDALEDR061","VALID","751 HILLSDALE DR","751 HILLSDALE DR, Charlottesville, VA ",,,,"061",38.0744990,-78.4736286,"2009-08-26 03:25:20","2009-08-26 03:29:43"
82,"1512MOUNTAINSIDECT089","APPROXIMATE","1512 MOUNTAINSIDE CT","1512 MOUNTAINSIDE CT, Arrowhead, VA ",,,,"089",37.9793886,-78.5621636,"2009-08-26 03:25:20","2009-08-26 03:30:01"
83,"2200SIMMONSGAPRD008","VALID","2200 SIMMONS GAP RD","2200 SIMMONS GAP RD, Nortonsville, VA ",,,,"008",38.2424555,-78.5715756,"2009-08-26 03:25:20","2009-08-26 03:30:28"
84,"2985EARLYSVILLERD045","VALID","2985 EARLYSVILLE RD","2985 EARLYSVILLE RD, Charlottesville, VA ",,,,"045",38.1181250,-78.4689900,"2009-08-26 03:25:20","2009-08-26 03:29:45"
85,"300PRESTONAVE077","VALID","300 PRESTON AVE","300 PRESTON AVE, Charlottesville, VA ",,,,"077",38.0337187,-78.4837322,"2009-08-26 03:25:20","2009-08-26 03:29:56"
86,"1600AVONSTREETEXT077","VALID","1600 AVON STREET EXT","1600 AVON STREET EXT, Charlottesville, VA ",,,,"077",38.0057931,-78.4935660,"2009-08-26 03:25:20","2009-08-26 03:29:52"
87,"5640FIELDCRESTDR130","VALID","5640 FIELDCREST DR","5640 FIELDCREST DR, Scottsville, VA ",,,,"130",37.8273960,-78.5317710,"2009-08-26 03:25:20","2009-08-26 03:29:47"
88,"1000MONTROSEAVE077","VALID","1000 MONTROSE AVE","1000 MONTROSE AVE, Charlottesville, VA ",,,,"077",38.0195660,-78.4760710,"2009-08-26 03:25:20","2009-08-26 03:29:50"
89,"1564DAIRYROAD061","VALID","1564 DAIRY ROAD","1564 DAIRY ROAD, Charlottesville, VA ",,,,"061",38.0536670,-78.4840970,"2009-08-26 03:25:21","2009-08-26 03:29:59"
90,"1625MERIDIANST077","VALID","1625 MERIDIAN ST","1625 MERIDIAN ST, Charlottesville, VA ",,,,"077",38.0154197,-78.4814453,"2009-08-26 03:25:21","2009-08-26 03:29:54"
91,"ZANRDSEMINOLETRL061","VALID","ZAN RD&SEMINOLE TRL","ZAN RD & SEMINOLE TRL, Charlottesville, VA ",,,,"061",38.0636040,-78.4888390,"2009-08-26 03:25:21","2009-08-26 03:30:03"
92,"526FLOYDDRUVA076","APPROXIMATE","526 FLOYD DR - UVA","526 FLOYD DR - UVA, Charlottesville, VA ",,,,"076",38.0210053,-78.5205438,"2009-08-26 03:25:21","2009-08-26 03:30:12"
93,"1617AMHERSTST061","VALID","1617 AMHERST ST","1617 AMHERST ST, Charlottesville, VA ",,,,"061",38.0429779,-78.4895307,"2009-08-26 03:25:21","2009-08-26 03:30:05"
94,"1012DRUIDAVE077","VALID","1012 DRUID AVE","1012 DRUID AVE, Charlottesville, VA ",,,,"077",38.0170157,-78.4766663,"2009-08-26 03:25:21","2009-08-26 03:30:08"
95,"235WMAINST077","VALID","235 W MAIN ST","235 W MAIN ST, Charlottesville, VA ",,,,"077",38.0321050,-78.4840360,"2009-08-26 03:25:21","2009-08-26 03:30:10"
96,"2520HUNTINGTONRD061","VALID","2520 HUNTINGTON RD","2520 HUNTINGTON RD, Charlottesville, VA ",,,,"061",38.0757890,-78.4602610,"2009-08-26 03:25:21","2009-08-26 03:30:19"
97,"GORDONSVILLERDKLOCKNERRD051","APPROXIMATE","GORDONSVILLE RD&KLOCKNER RD","GORDONSVILLE RD & KLOCKNER RD, Lindsay, VA ",,,,"051",38.1039014,-78.2286610,"2009-08-26 03:25:21","2009-08-26 03:30:21"
98,"4700PLANKRD099","VALID","4700 PLANK RD","4700 PLANK RD, North Garden, VA ",,,,"099",37.9352720,-78.6371770,"2009-08-26 03:25:21","2009-08-26 03:30:30"
99,"5400PLANKRD086","VALID","5400 PLANK RD","5400 PLANK RD, Miran Forest, VA ",,,,"086",37.9795868,-78.6858446,"2009-08-26 03:25:21","2009-08-26 03:30:14"
100,"3235AVEBURYLN093","VALID","3235 AVEBURY LN","3235 AVEBURY LN, Ashmere, VA ",,,,"093",37.9940088,-78.3842184,"2009-08-26 03:25:21","2009-08-26 03:30:16"
101,"2120DOMINIONDR061","VALID","2120 DOMINION DR","2120 DOMINION DR, Charlottesville, VA ",,,,"061",38.0775120,-78.4815050,"2009-08-26 03:25:22","2009-08-26 03:30:23"
102,"25MILLCREEKDR077","APPROXIMATE","25 MILL CREEK DR","25 MILL CREEK DR, Charlottesville, VA ",,,,"077",38.0210052,-78.4788893,"2009-08-26 03:25:22","2009-08-26 03:30:37"
103,"1414SHORT18THST077","VALID","1414 SHORT 18TH ST","1414 SHORT 18TH ST, Charlottesville, VA ",,,,"077",38.0260530,-78.4613360,"2009-08-26 03:25:27","2009-08-26 03:30:35"
104,"1924SWANSONDR061","VALID","1924 SWANSON DR","1924 SWANSON DR, Charlottesville, VA ",,,,"061",38.0621427,-78.4940488,"2009-08-26 03:25:27","2009-08-26 03:30:25"
105,"512RIVESST077","VALID","512 RIVES ST","512 RIVES ST, Charlottesville, VA ",,,,"077",38.0208640,-78.4676910,"2009-08-26 03:25:27","2009-08-26 03:30:32"
106,"210SOUTHPANTOPSDR078","VALID","210 SOUTH PANTOPS DR","210 SOUTH PANTOPS DR, Charlottesville, VA ",,,,"078",38.0284776,-78.4501713,"2009-08-26 03:25:27","2009-08-26 03:30:43"
107,"711BLENHEIMAVE077","VALID","711 BLENHEIM AVE","711 BLENHEIM AVE, Charlottesville, VA ",,,,"077",38.0226050,-78.4792760,"2009-08-26 03:25:27","2009-08-26 03:30:58"
108,"LOUISARDCLARKSTRACT080","APPROXIMATE","LOUISA RD&CLARKS TRACT","LOUISA RD & CLARKS TRACT, Keswick, VA ",,,,"080",38.0209177,-78.3539261,"2009-08-26 03:25:27","2009-08-26 03:30:49"
109,"700WMAINST077","VALID","700 W MAIN ST","700 W MAIN ST, Charlottesville, VA ",,,,"077",38.0314022,-78.4897026,"2009-08-26 03:25:27","2009-08-26 03:30:46"
110,"302HARRISRD076","VALID","302 HARRIS RD","302 HARRIS RD, Charlottesville, VA ",,,,"076",38.0161553,-78.5062181,"2009-08-26 03:25:27","2009-08-26 03:30:39"
111,"1375HUNTERSFIELDCLOSE093","VALID","1375 HUNTERSFIELD CLOSE","1375 HUNTERSFIELD CLOSE, Ashmere, VA ",,,,"093",37.9975438,-78.3909240,"2009-08-26 03:25:27","2009-08-26 03:30:41"
112,"2410NORTHBERKSHIRERD061","VALID","2410 NORTH BERKSHIRE RD","2410 NORTH BERKSHIRE RD, Charlottesville, VA ",,,,"061",38.0650879,-78.4982136,"2009-08-26 03:25:28","2009-08-26 03:31:37"
113,"1916THOMASJEFFERSONPKWY092","VALID","1916 THOMAS JEFFERSON PKWY","1916 THOMAS JEFFERSON PKWY, Simeon, VA ",,,,"092",37.9795800,-78.4228565,"2009-08-26 03:25:28","2009-08-26 03:30:55"
114,"105EMMETSTN061","APPROXIMATE","105 EMMET ST N","105 EMMET ST N, Charlottesville, VA ",,,,"061",38.0626068,-78.4788775,"2009-08-26 03:25:28","2009-08-26 03:31:11"
115,"5700GORDONSVILLERD065","VALID","5700 GORDONSVILLE RD","5700 GORDONSVILLE RD, Cismont, VA ",,,,"065",38.0658670,-78.3053723,"2009-08-26 03:25:28","2009-08-26 03:30:51"
116,"4842RICHMONDRD094","APPROXIMATE","4842 RICHMOND RD","4842 RICHMOND RD, Running Deer, VA ",,,,"094",37.9793155,-78.3540074,"2009-08-26 03:25:28","2009-08-26 03:30:53"
117,"949MONTICELLOLOOP078","APPROXIMATE","949 MONTICELLO LOOP","949 MONTICELLO LOOP, Charlottesville, VA ",,,,"078",38.0209906,-78.4372349,"2009-08-26 03:25:28","2009-08-26 03:31:02"
118,"1813YORKTOWNDR061","VALID","1813 YORKTOWN DR","1813 YORKTOWN DR, Charlottesville, VA ",,,,"061",38.0625400,-78.4760750,"2009-08-26 03:25:28","2009-08-26 03:31:00"
119,"1414RICKYRD060","VALID","1414 RICKY RD","1414 RICKY RD, Charlottesville, VA ",,,,"060",38.0585140,-78.5038720,"2009-08-26 03:25:28","2009-08-26 03:31:07"
120,"125RIVERBENDDR078","VALID","125 RIVERBEND DR","125 RIVERBEND DR, Charlottesville, VA ",,,,"078",38.0329230,-78.4546100,"2009-08-26 03:25:28","2009-08-26 03:31:13"
121,"1120RICHMONDRD078","VALID","1120 RICHMOND RD","1120 RICHMOND RD, Charlottesville, VA ",,,,"078",38.0341055,-78.4574872,"2009-08-26 03:25:28","2009-08-26 03:31:04"
122,"1904EMMETSTN061","VALID","1904 EMMET ST N","1904 EMMET ST N, Charlottesville, VA ",,,,"061",38.0607868,-78.4923690,"2009-08-26 03:25:28","2009-08-26 03:31:09"
123,"205MONTVUEDR060","VALID","205 MONTVUE DR","205 MONTVUE DR, Charlottesville, VA ",,,,"060",38.0700480,-78.5138070,"2009-08-26 03:25:29","2009-08-26 03:31:18"
124,"600EMAINST077","VALID","600 E MAIN ST","600 E MAIN ST, Charlottesville, VA ",,,,"077",38.0295716,-78.4776392,"2009-08-26 03:25:29","2009-08-26 03:31:23"
125,"5016FREEUNIONRD017","APPROXIMATE","5016 FREE UNION RD","5016 FREE UNION RD, Patterson Store, VA ",,,,"017",38.1873931,-78.5623371,"2009-08-26 03:25:29","2009-08-26 03:31:30"
126,"MILTONRDGELLETLYRD093","APPROXIMATE","MILTON RD&GELLETLY RD","MILTON RD & GELLETLY RD, Ashmere, VA ",,,,"093",37.9793592,-78.3956386,"2009-08-26 03:25:29","2009-08-26 03:31:20"
127,"400EMMETSTSUVA061","APPROXIMATE","400 EMMET ST S - UVA","400 EMMET ST S - UVA, Charlottesville, VA ",,,,"061",38.0626068,-78.4788775,"2009-08-26 03:25:29","2009-08-26 03:31:59"
128,"CRITZERSSHOPRDROCKFISHGAP069","VALID","CRITZERS SHOP RD&ROCKFISH GAP","CRITZERS SHOP RD & ROCKFISH GAP, Blue Ridge Acres, VA ",,,,"069",38.0242720,-78.8147260,"2009-08-26 03:25:29","2009-08-26 03:31:46"
129,"901ROSSERLN061","VALID","901 ROSSER LN","901 ROSSER LN, Charlottesville, VA ",,,,"061",38.0449730,-78.4970900,"2009-08-26 03:25:29","2009-08-26 03:31:25"
130,"14THSTNWJOHNST077","APPROXIMATE","14TH ST NW&JOHN ST","14TH ST NW & JOHN ST, Charlottesville, VA ",,,,"077",38.0210052,-78.4788893,"2009-08-26 03:25:29","2009-08-26 03:31:28"
131,"4900FRYSPATH","APPROXIMATE","4900 FRYS PATH","4900 FRYS PATH, Charlottesville, VA ",,,,"000",37.9015206,-78.5479445,"2009-08-26 03:25:29","2009-08-26 03:31:48"
132,"5001STSTS077","VALID","500 1ST ST S","500 1ST ST S, Charlottesville, VA ",,,,"077",38.0266734,-78.4838599,"2009-08-26 03:25:30","2009-08-26 03:31:33"
133,"3132NDSTSE077","VALID","313 2ND ST SE","313 2ND ST SE, Charlottesville, VA ",,,,"077",38.0290964,-78.4814503,"2009-08-26 03:25:30","2009-08-26 03:31:35"
134,"211WHITEWOODRD061","VALID","211 WHITEWOOD RD","211 WHITEWOOD RD, Charlottesville, VA ",,,,"061",38.0739800,-78.4923960,"2009-08-26 03:25:30","2009-08-26 03:31:39"
135,"709WMAINST077","VALID","709 W MAIN ST","709 W MAIN ST, Charlottesville, VA ",,,,"077",38.0314498,-78.4897334,"2009-08-26 03:25:30","2009-08-26 03:32:01"
136,"1511UNIVERSITYAVE076","VALID","1511 UNIVERSITY AVE","1511 UNIVERSITY AVE, Charlottesville, VA ",,,,"076",38.0366734,-78.5031952,"2009-08-26 03:25:30","2009-08-26 03:31:42"
137,"3393APRILLN032","APPROXIMATE","3393 APRIL LN","3393 APRIL LN, Crimora, VA ",,,,"032",38.1455028,-78.7709225,"2009-08-26 03:25:30","2009-08-26 03:31:44"
138,"ROSEHILLDRDELMARDR061","APPROXIMATE","ROSE HILL DR&DEL MAR DR","ROSE HILL DR & DEL MAR DR, Charlottesville, VA ",,,,"061",38.0626068,-78.4788775,"2009-08-26 03:25:30","2009-08-26 03:31:51"
139,"BRANDYWINEDRHYDRAULICRD061","VALID","BRANDYWINE DR&HYDRAULIC RD","BRANDYWINE DR & HYDRAULIC RD, Charlottesville, VA ",,,,"061",38.0637720,-78.4800540,"2009-08-26 03:25:30","2009-08-26 03:31:54"
140,"76ARBORCRESTDR061","VALID","76 ARBOR CREST DR","76 ARBOR CREST DR, Charlottesville, VA ",,,,"061",38.0719766,-78.4981293,"2009-08-26 03:25:30","2009-08-26 03:31:56"
141,"4250WINDYCV031","APPROXIMATE","4250 WINDY CV","4250 WINDY CV, Gordonsville, VA ",,,,"031",38.1455015,-78.2285096,"2009-08-26 03:25:30","2009-08-26 03:32:12"
142,"147STRIBLINGAVE076","VALID","147 STRIBLING AVE","147 STRIBLING AVE, Charlottesville, VA ",,,,"076",38.0230993,-78.5178480,"2009-08-26 03:25:31","2009-08-26 03:32:05"
143,"390EMAINST077","VALID","390 E MAIN ST","390 E MAIN ST, Charlottesville, VA ",,,,"077",38.0300815,-78.4792967,"2009-08-26 03:25:31","2009-08-26 03:32:03"
144,"703RUGBYRD076","APPROXIMATE","703 RUGBY RD","703 RUGBY RD, Charlottesville, VA ",,,,"076",38.0210053,-78.5205438,"2009-08-26 03:25:35","2009-08-26 03:32:17"
145,"513WMAINST077","VALID","513 W MAIN ST","513 W MAIN ST, Charlottesville, VA ",,,,"077",38.0312570,-78.4881990,"2009-08-26 03:25:35","2009-08-26 03:32:19"
146,"3653DICKERSONRD032","APPROXIMATE","3653 DICKERSON RD","3653 DICKERSON RD, Crimora, VA ",,,,"032",38.1455028,-78.7709225,"2009-08-26 03:25:35","2009-08-26 03:32:08"
147,"616WMAINST077","VALID","616 W MAIN ST","616 W MAIN ST, Charlottesville, VA ",,,,"077",38.0309720,-78.4888180,"2009-08-26 03:25:35","2009-08-26 03:32:10"
148,"1514MAYMONTCT","INVALID","1514 MAYMONT CT","1514 MAYMONT CT, Charlottesville, VA ",,,,"000",38.0377640,-78.4892600,"2009-08-26 03:25:35","2009-08-26 03:32:14"
149,"201EASTMARKETST077","VALID","201 EAST MARKET ST","201 EAST MARKET ST, Charlottesville, VA ",,,,"077",38.0313900,-78.4799010,"2009-08-26 03:25:35","2009-08-26 03:32:29"
150,"1420WILTONFARMRD078","VALID","1420 WILTON FARM RD","1420 WILTON FARM RD, Charlottesville, VA ",,,,"078",38.0365199,-78.4485345,"2009-08-26 03:25:35","2009-08-26 03:32:36"
151,"5206SECRETARYSSANDR","APPROXIMATE","5206 SECRETARYS SAND R","5206 SECRETARYS SAND R, Charlottesville, VA ",,,,"000",37.8911240,-78.5992760,"2009-08-26 03:25:35","2009-08-26 03:32:21"
152,"1237TIMBERBRANCHCT076","VALID","1237 TIMBERBRANCH CT","1237 TIMBERBRANCH CT, Charlottesville, VA ",,,,"076",38.0021960,-78.5078630,"2009-08-26 03:25:35","2009-08-26 03:32:31"
153,"SEMINOLETRLWOODBROOK045","APPROXIMATE","SEMINOLE TRL&WOODBROOK","SEMINOLE TRL & WOODBROOK, Charlottesville, VA ",,,,"045",38.1042077,-78.4788658,"2009-08-26 03:25:35","2009-08-26 03:32:34"
154,"1052HIGHLANDSDR057","APPROXIMATE","1052 HIGHLANDS DR","1052 HIGHLANDS DR, Ivy Woods, VA ",,,,"057",38.0625199,-78.6455881,"2009-08-26 03:25:36","2009-08-26 03:32:23"
155,"MCINTIRERDBYPASS077","APPROXIMATE","MCINTIRE RD&BYPASS","MCINTIRE RD & BYPASS, Charlottesville, VA ",,,,"077",38.0210052,-78.4788893,"2009-08-26 03:25:36","2009-08-26 03:32:26"
156,"1062HOPKINSCT061","VALID","1062 HOPKINS CT","1062 HOPKINS CT, Charlottesville, VA ",,,,"061",38.0791940,-78.4629580,"2009-08-26 03:25:36","2009-08-26 03:32:38"
157,"5THSTSWCLEVELANDAV076","APPROXIMATE","5TH ST SW&CLEVELAND AV","5TH ST SW & CLEVELAND AV, Charlottesville, VA ",,,,"076",38.0210053,-78.5205438,"2009-08-26 03:25:36","2009-08-26 03:32:43"
158,"422GARRETTST077","VALID","422 GARRETT ST","422 GARRETT ST, Charlottesville, VA ",,,,"077",38.0276809,-78.4797250,"2009-08-26 03:25:36","2009-08-26 03:32:55"
159,"3263PROFFITRD032","APPROXIMATE","3263 PROFFIT RD","3263 PROFFIT RD, Crimora, VA ",,,,"032",38.1455028,-78.7709225,"2009-08-26 03:25:36","2009-08-26 03:32:41"
160,"2507WOODLANDDR076","VALID","2507 WOODLAND DR","2507 WOODLAND DR, Charlottesville, VA ",,,,"076",38.0196090,-78.5125670,"2009-08-26 03:25:36","2009-08-26 03:32:57"
161,"3600LOUISARD080","APPROXIMATE","3600 LOUISA RD","3600 LOUISA RD, Keswick, VA ",,,,"080",38.0209177,-78.3539261,"2009-08-26 03:25:36","2009-08-26 03:32:46"
162,"200WSOUTHST061","APPROXIMATE","200 W SOUTH ST","200 W SOUTH ST, Charlottesville, VA ",,,,"061",38.0626068,-78.4788775,"2009-08-26 03:25:36","2009-08-26 03:33:13"
163,"1220CROZETAVE056","VALID","1220 CROZET AVE","1220 CROZET AVE, Crozet, VA ",,,,"056",38.0696020,-78.7007540,"2009-08-26 03:25:36","2009-08-26 03:32:48"
164,"1512BUCKRD055","VALID","1512 BUCK RD","1512 BUCK RD, Crozet, VA ",,,,"055",38.0767861,-78.7096376,"2009-08-26 03:25:37","2009-08-26 03:32:52"
165,"530LEGODR078","VALID","530 LEGO DR","530 LEGO DR, Charlottesville, VA ",,,,"078",38.0335928,-78.4240945,"2009-08-26 03:25:37","2009-08-26 03:32:50"
166,"6532PIEDMONTCHURCHL","APPROXIMATE","6532 PIEDMONT CHURCH L","6532 PIEDMONT CHURCH L, Charlottesville, VA ",,,,"000",38.0537140,-78.7273910,"2009-08-26 03:25:37","2009-08-26 03:32:59"
167,"1895PINECONECIR045","VALID","1895 PINE CONE CIR","1895 PINE CONE CIR, Charlottesville, VA ",,,,"045",38.0884680,-78.4886060,"2009-08-26 03:25:37","2009-08-26 03:33:09"
168,"834HARDYDR077","VALID","834 HARDY DR","834 HARDY DR, Charlottesville, VA ",,,,"077",38.0334769,-78.4914058,"2009-08-26 03:25:37","2009-08-26 03:33:29"
169,"RIDGESTOAKST077","APPROXIMATE","RIDGE ST&OAK ST","RIDGE ST & OAK ST, Charlottesville, VA ",,,,"077",38.0210052,-78.4788893,"2009-08-26 03:25:37","2009-08-26 03:33:02"
170,"2813HYDRAULICRD061","VALID","2813 HYDRAULIC RD","2813 HYDRAULIC RD, Charlottesville, VA ",,,,"061",38.0763630,-78.4973626,"2009-08-26 03:25:37","2009-08-26 03:33:07"
171,"384COLESROLLINGRD122","VALID","384 COLES ROLLING RD","384 COLES ROLLING RD, Glendower, VA ",,,,"122",37.8439330,-78.5061000,"2009-08-26 03:25:37","2009-08-26 03:33:04"
172,"1996POWELLCREEKCT046","VALID","1996 POWELL CREEK CT","1996 POWELL CREEK CT, Charlottesville, VA ",,,,"046",38.1125031,-78.4334901,"2009-08-26 03:25:37","2009-08-26 03:33:16"
173,"231STRIBLINGAVE076","VALID","231 STRIBLING AVE","231 STRIBLING AVE, Charlottesville, VA ",,,,"076",38.0230380,-78.5180037,"2009-08-26 03:25:37","2009-08-26 03:33:11"
174,"ELLIEWOODAVEUNIVERSI076","VALID","ELLIEWOOD AVE&UNIVERSI","ELLIEWOOD AVE & UNIVERSI, Charlottesville, VA ",,,,"076",38.0362420,-78.5003690,"2009-08-26 03:25:37","2009-08-26 03:33:22"
175,"2118DOMINIONDR061","VALID","2118 DOMINION DR","2118 DOMINION DR, Charlottesville, VA ",,,,"061",38.0771850,-78.4812990,"2009-08-26 03:25:37","2009-08-26 03:33:20"
176,"11545THSTSW077","APPROXIMATE","1154 5TH ST SW","1154 5TH ST SW, Charlottesville, VA ",,,,"077",38.0210052,-78.4788893,"2009-08-26 03:25:38","2009-08-26 03:33:51"
177,"550MILLSTONECT061","VALID","550 MILLSTONE CT","550 MILLSTONE CT, Charlottesville, VA ",,,,"061",38.0678380,-78.4801250,"2009-08-26 03:25:38","2009-08-26 03:33:18"
178,"300BYPASS","INVALID","300 BYPASS","300 BYPASS, Charlottesville, VA ",,,,"000",38.8040120,-77.1751260,"2009-08-26 03:25:38","2009-08-26 03:33:41"
179,"500GREENBRIERDR061","VALID","500 GREENBRIER DR","500 GREENBRIER DR, Charlottesville, VA ",,,,"061",38.0696180,-78.4810960,"2009-08-26 03:25:38","2009-08-26 03:33:27"
180,"195VAUGHANDRBLDG","INVALID","195 VAUGHAN DR- BLDG","195 VAUGHAN DR- BLDG, Charlottesville, VA ",,,,"000",38.0377640,-78.4892600,"2009-08-26 03:25:38","2009-08-26 03:33:25"
181,"680EMAINST077","VALID","680 E MAIN ST","680 E MAIN ST, Charlottesville, VA ",,,,"077",38.0294954,-78.4773919,"2009-08-26 03:25:42","2009-08-26 03:33:34"
182,"400ALTAMONTCIR077","VALID","400 ALTAMONT CIR","400 ALTAMONT CIR, Charlottesville, VA ",,,,"077",38.0334730,-78.4813500,"2009-08-26 03:25:42","2009-08-26 03:33:37"
183,"SCOTTSVILLERDLANGHORNERD130","APPROXIMATE","SCOTTSVILLE RD&LANGHORNE RD","SCOTTSVILLE RD & LANGHORNE RD, Scottsville, VA ",,,,"130",37.8129883,-78.5204867,"2009-08-26 03:25:42","2009-08-26 03:33:32"
184,"243RIDGEMCINTIRERD077","VALID","243 RIDGE MCINTIRE RD","243 RIDGE MCINTIRE RD, Charlottesville, VA ",,,,"077",38.0320630,-78.4854170,"2009-08-26 03:25:42","2009-08-26 03:33:46"
185,"2515MARTINKINGSRD116","APPROXIMATE","2515 MARTIN KINGS RD","2515 MARTIN KINGS RD, Woodridge, VA ",,,,"116",37.8961530,-78.3957431,"2009-08-26 03:25:42","2009-08-26 03:33:39"
186,"3290WORTHXING032","APPROXIMATE","3290 WORTH XING","3290 WORTH XING, Crimora, VA ",,,,"032",38.1455028,-78.7709225,"2009-08-26 03:25:43","2009-08-26 03:34:05"
187,"OLDBROOKRDRAMBLEWOODPL061","APPROXIMATE","OLD BROOK RD&RAMBLEWOOD PL","OLD BROOK RD & RAMBLEWOOD PL, Charlottesville, VA ",,,,"061",38.0626068,-78.4788775,"2009-08-26 03:25:43","2009-08-26 03:33:44"
188,"BYPASSNBEBOFFRAMPIVYRD076","FAILED: 602","BYPASS NB/EB OFF RAMP&IVY RD","BYPASS NB/EB OFF RAMP & IVY RD, Charlottesville, VA ",,,,"076",,,"2009-08-26 03:25:43","2009-08-26 18:54:42"
189,"312CONNORDR","INVALID","312 CONNOR DR","312 CONNOR DR, Charlottesville, VA ",,,,"000",38.0377640,-78.4892600,"2009-08-26 03:25:43","2009-08-26 03:33:48"
190,"925EJEFFERSONST077","VALID","925 E JEFFERSON ST","925 E JEFFERSON ST, Charlottesville, VA ",,,,"077",38.0304732,-78.4738080,"2009-08-26 03:25:43","2009-08-26 03:34:01"
191,"110SOUTHPANTOPSDR078","VALID","110 SOUTH PANTOPS DR","110 SOUTH PANTOPS DR, Charlottesville, VA ",,,,"078",38.0308340,-78.4547890,"2009-08-26 03:25:43","2009-08-26 03:33:58"
192,"2050ABBEYRD078","VALID","2050 ABBEY RD","2050 ABBEY RD, Charlottesville, VA ",,,,"078",38.0285100,-78.4431680,"2009-08-26 03:25:43","2009-08-26 03:34:07"
193,"BUCKINGHAM7","APPROXIMATE","BUCKINGHAM 7","BUCKINGHAM 7, Charlottesville, VA ",,,,"000",38.0291100,-78.5320470,"2009-08-26 03:25:43","2009-08-26 03:33:53"
194,"JAMESRIVERRDMTALTORD133","APPROXIMATE","JAMES RIVER RD&MT ALTO RD","JAMES RIVER RD & MT ALTO RD, McCullough, VA ",,,,"133",37.7712965,-78.6450223,"2009-08-26 03:25:43","2009-08-26 03:33:56"
195,"101LEIGHPL077","VALID","101 LEIGH PL","101 LEIGH PL, Charlottesville, VA ",,,,"077",38.0149990,-78.4977570,"2009-08-26 03:25:43","2009-08-26 03:34:03"
196,"1800TIMBERWOODBLVD032","APPROXIMATE","1800 TIMBERWOOD BLVD","1800 TIMBERWOOD BLVD, Crimora, VA ",,,,"032",38.1455028,-78.7709225,"2009-08-26 03:25:44","2009-08-26 03:34:12"
197,"1709CRENSHAWCT061","VALID","1709 CRENSHAW CT","1709 CRENSHAW CT, Charlottesville, VA ",,,,"061",38.0815170,-78.4903550,"2009-08-26 03:25:44","2009-08-26 03:34:16"
198,"3230WAVERLYDR042","VALID","3230 WAVERLY DR","3230 WAVERLY DR, Mill Ridge, VA ",,,,"042",38.1003296,-78.6110796,"2009-08-26 03:25:44","2009-08-26 03:34:10"
199,"2256IRISHRD128","APPROXIMATE","2256 IRISH RD","2256 IRISH RD, Porters, VA ",,,,"128",37.8129450,-78.6035642,"2009-08-26 03:25:44","2009-08-26 03:35:00"
200,"2507HILLWOODPL061","VALID","2507 HILLWOOD PL","2507 HILLWOOD PL, Charlottesville, VA ",,,,"061",38.0658360,-78.4733350,"2009-08-26 03:25:44","2009-08-26 03:34:14"
201,"753MILLWOODLN065","VALID","753 MILLWOOD LN","753 MILLWOOD LN, Cismont, VA ",,,,"065",38.0570780,-78.3004923,"2009-08-26 03:25:44","2009-08-26 03:34:21"
202,"2097INNDR078","VALID","2097 INN DR","2097 INN DR, Charlottesville, VA ",,,,"078",38.0197340,-78.4275280,"2009-08-26 03:25:44","2009-08-26 03:34:30"
203,"1400SEMINOLETRL061","VALID","1400 SEMINOLE TRL","1400 SEMINOLE TRL, Charlottesville, VA ",,,,"061",38.0726501,-78.4823262,"2009-08-26 03:25:44","2009-08-26 03:34:23"
204,"615BEECHWOODDR061","VALID","615 BEECHWOOD DR","615 BEECHWOOD DR, Charlottesville, VA ",,,,"061",38.0454990,-78.4662390,"2009-08-26 03:25:44","2009-08-26 03:34:19"
205,"735ORANGEDALEAVE077","VALID","735 ORANGEDALE AVE","735 ORANGEDALE AVE, Charlottesville, VA ",,,,"077",38.0234060,-78.4967470,"2009-08-26 03:25:44","2009-08-26 03:34:28"
206,"106BURTONCT044","VALID","106 BURTON CT","106 BURTON CT, Clearview Meadows, VA ",,,,"044",38.1110080,-78.5199399,"2009-08-26 03:25:44","2009-08-26 03:34:35"
207,"SEMINOLETRLAUSTINDR032","APPROXIMATE","SEMINOLE TRL&AUSTIN DR","SEMINOLE TRL & AUSTIN DR, Crimora, VA ",,,,"032",38.1455028,-78.7709225,"2009-08-26 03:25:44","2009-08-26 03:34:26"
208,"1705ESSEXRD061","VALID","1705 ESSEX RD","1705 ESSEX RD, Charlottesville, VA ",,,,"061",38.0618450,-78.4785390,"2009-08-26 03:25:44","2009-08-26 03:34:46"
209,"9741WARRENFERRYRD135","VALID","9741 WARREN FERRY RD","9741 WARREN FERRY RD, Warren, VA ",,,,"135",37.7690650,-78.5584370,"2009-08-26 03:25:45","2009-08-26 03:34:39"
210,"3224GATEWAYCIR032","APPROXIMATE","3224 GATEWAY CIR","3224 GATEWAY CIR, Crimora, VA ",,,,"032",38.1455028,-78.7709225,"2009-08-26 03:25:45","2009-08-26 03:34:33"
211,"1165PEPSIPL061","VALID","1165 PEPSI PL","1165 PEPSI PL, Charlottesville, VA ",,,,"061",38.0688460,-78.4817960,"2009-08-26 03:25:45","2009-08-26 03:34:37"
212,"1707CEDARHILLRD061","VALID","1707 CEDAR HILL RD","1707 CEDAR HILL RD, Charlottesville, VA ",,,,"061",38.0618000,-78.4968480,"2009-08-26 03:25:45","2009-08-26 03:34:41"
213,"675IRISHRD130","VALID","675 IRISH RD","675 IRISH RD, Scottsville, VA ",,,,"130",37.8083422,-78.5235478,"2009-08-26 03:25:45","2009-08-26 03:34:48"
214,"FLUVANNA2","APPROXIMATE","FLUVANNA 2","FLUVANNA 2, Charlottesville, VA ",,,,"000",38.0104698,-78.5660852,"2009-08-26 03:25:45","2009-08-26 03:34:44"
215,"207RIDGEST077","VALID","207 RIDGE ST","207 RIDGE ST, Charlottesville, VA ",,,,"077",38.0294410,-78.4856329,"2009-08-26 03:25:45","2009-08-26 03:35:10"
216,"LANETOWNRDJARMANSGAPRD055","APPROXIMATE","LANETOWN RD&JARMANS GAP RD","LANETOWN RD & JARMANS GAP RD, Crozet, VA ",,,,"055",38.0623891,-78.7289431,"2009-08-26 03:25:45","2009-08-26 03:34:55"
217,"OLDLYNCHBURGRDPONDEROSATRL089","VALID","OLD LYNCHBURG RD&PONDEROSA TRL","OLD LYNCHBURG RD & PONDEROSA TRL, Arrowhead, VA ",,,,"089",37.9611110,-78.5582960,"2009-08-26 03:25:45","2009-08-26 03:35:04"
218,"1517UNIVERSITYAVE076","VALID","1517 UNIVERSITY AVE","1517 UNIVERSITY AVE, Charlottesville, VA ",,,,"076",38.0366185,-78.5030194,"2009-08-26 03:25:45","2009-08-26 03:34:50"
219,"2850KINGSOLOMONSLN128","APPROXIMATE","2850 KING SOLOMONS LN","2850 KING SOLOMONS LN, Porters, VA ",,,,"128",37.8129450,-78.6035642,"2009-08-26 03:25:50","2009-08-26 03:34:53"
220,"801EMARKETST077","VALID","801 E MARKET ST","801 E MARKET ST, Charlottesville, VA ",,,,"077",38.0300290,-78.4755550,"2009-08-26 03:25:50","2009-08-26 03:35:02"
221,"1700TIMBERWOODBLVD046","APPROXIMATE","1700 TIMBERWOOD BLVD","1700 TIMBERWOOD BLVD, Charlottesville, VA ",,,,"046",38.1041930,-78.4371649,"2009-08-26 03:25:50","2009-08-26 03:34:57"
222,"SEMINOLETRLFRAYSMILLRD021","VALID","SEMINOLE TRL&FRAYS MILL RD","SEMINOLE TRL & FRAYS MILL RD, Advance Mills Village, VA ",,,,"021",38.1693060,-78.4110630,"2009-08-26 03:25:50","2009-08-26 03:35:07"
223,"412GARRETTST077","VALID","412 GARRETT ST","412 GARRETT ST, Charlottesville, VA ",,,,"077",38.0277186,-78.4798046,"2009-08-26 03:25:50","2009-08-26 03:35:12"
224,"450LAMBETHCOMMONSUVA","INVALID","450 LAMBETH COMMONS - UVA","450 LAMBETH COMMONS - UVA, Charlottesville, VA ",,,,"000",38.0377640,-78.4892600,"2009-08-26 03:25:50","2009-08-26 03:35:14"
225,"5540STUMPTOWNLN111","APPROXIMATE","5540 STUMP TOWN LN","5540 STUMP TOWN LN, Powell Corner, VA ",,,,"111",37.8961535,-78.6036794,"2009-08-26 03:25:50","2009-08-26 03:35:41"
226,"491CRESTWOODDR060","VALID","491 CRESTWOOD DR","491 CRESTWOOD DR, Charlottesville, VA ",,,,"060",38.0499560,-78.5169140,"2009-08-26 03:25:50","2009-08-26 03:35:27"
227,"5215CHESTNUTLN019","APPROXIMATE","5215 CHESTNUT LN","5215 CHESTNUT LN, Frays Mountain Estates, VA ",,,,"019",38.1874074,-78.4788422,"2009-08-26 03:25:51","2009-08-26 03:35:25"
228,"810HARDYDR077","VALID","810 HARDY DR","810 HARDY DR, Charlottesville, VA ",,,,"077",38.0333596,-78.4905807,"2009-08-26 03:25:51","2009-08-26 03:35:16"
229,"509PARKST077","VALID","509 PARK ST","509 PARK ST, Charlottesville, VA ",,,,"077",38.0330615,-78.4764219,"2009-08-26 03:25:51","2009-08-26 03:35:21"
230,"201BOWENLOOPBLDG032","APPROXIMATE","201 BOWEN LOOP - BLDG","201 BOWEN LOOP - BLDG, Crimora, VA ",,,,"032",38.1455028,-78.7709225,"2009-08-26 03:25:51","2009-08-26 03:35:19"
231,"1035EMMETSTN061","APPROXIMATE","1035 EMMET ST N","1035 EMMET ST N, Charlottesville, VA ",,,,"061",38.0626068,-78.4788775,"2009-08-26 03:25:51","2009-08-26 03:35:23"
232,"756BROOMLEYRD059","VALID","756 BROOMLEY RD","756 BROOMLEY RD, Charlottesville, VA ",,,,"059",38.0559635,-78.5563753,"2009-08-26 03:25:51","2009-08-26 03:35:32"
233,"2660STONYPOINTRD063","VALID","2660 STONY POINT RD","2660 STONY POINT RD, Eastham, VA ",,,,"063",38.0741181,-78.4068041,"2009-08-26 03:25:51","2009-08-26 03:35:30"
234,"SEMINOLETRLCAMELOTDR032","APPROXIMATE","SEMINOLE TRL&CAMELOT DR","SEMINOLE TRL & CAMELOT DR, Crimora, VA ",,,,"032",38.1455028,-78.7709225,"2009-08-26 03:25:51","2009-08-26 03:35:46"
235,"229DICEST077","VALID","229 DICE ST","229 DICE ST, Charlottesville, VA ",,,,"077",38.0278461,-78.4854358,"2009-08-26 03:25:51","2009-08-26 03:35:36"
236,"1510AMHERSTST061","VALID","1510 AMHERST ST","1510 AMHERST ST, Charlottesville, VA ",,,,"061",38.0424040,-78.4852990,"2009-08-26 03:25:51","2009-08-26 03:35:34"
237,"2955IVYRDBLDG059","VALID","2955 IVY RD - BLDG","2955 IVY RD - BLDG, Charlottesville, VA ",,,,"059",38.0513210,-78.5484400,"2009-08-26 03:25:52","2009-08-26 03:36:02"
238,"198SCOTTSVILLECTR077","APPROXIMATE","198 SCOTTSVILLE CTR","198 SCOTTSVILLE CTR, Charlottesville, VA ",,,,"077",38.0210052,-78.4788893,"2009-08-26 03:25:52","2009-08-26 03:35:43"
239,"585BRANCHLANDSBLVD061","VALID","585 BRANCHLANDS BLVD","585 BRANCHLANDS BLVD, Charlottesville, VA ",,,,"061",38.0728760,-78.4799550,"2009-08-26 03:25:52","2009-08-26 03:35:39"
240,"1329RIVERDALEDR077","VALID","1329 RIVERDALE DR","1329 RIVERDALE DR, Charlottesville, VA ",,,,"077",38.0343880,-78.4609860,"2009-08-26 03:25:52","2009-08-26 03:35:51"
241,"7300SCOTTSVILLERD130","VALID","7300 SCOTTSVILLE RD","7300 SCOTTSVILLE RD, Scottsville, VA ",,,,"130",37.8291620,-78.5321518,"2009-08-26 03:25:52","2009-08-26 03:36:04"
242,"3005COLONIALDR32D","APPROXIMATE","3005 COLONIAL DR","3005 COLONIAL DR, Charlottesville, VA ",,,,"000",38.1290360,-78.4223560,"2009-08-26 03:25:52","2009-08-26 22:50:46"
243,"1328DUDLEYMOUNTAINRD089","VALID","1328 DUDLEY MOUNTAIN RD","1328 DUDLEY MOUNTAIN RD, Arrowhead, VA ",,,,"089",37.9646000,-78.5768630,"2009-08-26 03:25:52","2009-08-26 03:35:48"
244,"505RIORDW045","VALID","505 RIO RD W","505 RIO RD W, Charlottesville, VA ",,,,"045",38.0868645,-78.4820430,"2009-08-26 03:25:52","2009-08-26 03:35:57"
245,"1994POWELLCREEKCT046","VALID","1994 POWELL CREEK CT","1994 POWELL CREEK CT, Charlottesville, VA ",,,,"046",38.1125079,-78.4335142,"2009-08-26 03:25:52","2009-08-26 03:35:55"
246,"1666BUCKMOUNTAINRD030","APPROXIMATE","1666 BUCK MOUNTAIN RD","1666 BUCK MOUNTAIN RD, Barboursville, VA ",,,,"030",38.1455890,-78.2702335,"2009-08-26 03:25:52","2009-08-26 03:35:53"
247,"159MADISONLN076","VALID","159 MADISON LN","159 MADISON LN, Charlottesville, VA ",,,,"076",38.0382960,-78.5014830,"2009-08-26 03:25:53","2009-08-26 03:36:22"
248,"4122DICKERSONRD032","APPROXIMATE","4122 DICKERSON RD","4122 DICKERSON RD, Crimora, VA ",,,,"032",38.1455028,-78.7709225,"2009-08-26 03:25:53","2009-08-26 03:36:00"
249,"400EMMETSTN061","APPROXIMATE","400 EMMET ST N","400 EMMET ST N, Charlottesville, VA ",,,,"061",38.0626068,-78.4788775,"2009-08-26 03:25:53","2009-08-26 03:36:08"
250,"182REASFORDRD031","APPROXIMATE","182 REAS FORD RD","182 REAS FORD RD, Gordonsville, VA ",,,,"031",38.1455015,-78.2285096,"2009-08-26 03:25:53","2009-08-26 03:36:13"
251,"6415DICKWOODSRD071","APPROXIMATE","6415 DICK WOODS RD","6415 DICK WOODS RD, Midway, VA ",,,,"071",38.0207877,-78.7288156,"2009-08-26 03:25:53","2009-08-26 03:36:06"
252,"101EMARKETST077","VALID","101 E MARKET ST","101 E MARKET ST, Charlottesville, VA ",,,,"077",38.0315460,-78.4811340,"2009-08-26 03:25:57","2009-08-26 03:36:29"
253,"1829STEEPLECHASERUN046","VALID","1829 STEEPLECHASE RUN","1829 STEEPLECHASE RUN, Charlottesville, VA ",,,,"046",38.1216120,-78.4368780,"2009-08-26 03:25:57","2009-08-26 03:36:15"
254,"5376BUFFALORIVERRD019","APPROXIMATE","5376 BUFFALO RIVER RD","5376 BUFFALO RIVER RD, Frays Mountain Estates, VA ",,,,"019",38.1874074,-78.4788422,"2009-08-26 03:25:57","2009-08-26 03:36:38"
255,"2650STOWECT058","VALID","2650 STOWE CT","2650 STOWE CT, Ivy, VA ",,,,"058",38.0679710,-78.5914320,"2009-08-26 03:25:58","2009-08-26 03:36:42"
256,"2030LINDSAYRD050","APPROXIMATE","2030 LINDSAY RD","2030 LINDSAY RD, Cash Corner, VA ",,,,"050",38.1039889,-78.2703616,"2009-08-26 03:25:58","2009-08-26 03:36:11"
257,"3785GAINESLN133","VALID","3785 GAINES LN","3785 GAINES LN, McCullough, VA ",,,,"133",37.7879141,-78.6349259,"2009-08-26 03:25:58","2009-08-26 03:36:20"
258,"650EMAINST077","VALID","650 E MAIN ST","650 E MAIN ST, Charlottesville, VA ",,,,"077",38.0295240,-78.4774847,"2009-08-26 03:25:58","2009-08-26 03:36:27"
259,"631WOODLANDSRD044","VALID","631 WOODLANDS RD","631 WOODLANDS RD, Clearview Meadows, VA ",,,,"044",38.1094461,-78.5077020,"2009-08-26 03:25:58","2009-08-26 03:36:18"
260,"802HARDYDR077","VALID","802 HARDY DR","802 HARDY DR, Charlottesville, VA ",,,,"077",38.0333954,-78.4903021,"2009-08-26 03:25:58","2009-08-26 03:36:24"
261,"126MONTEVISTAAVE076","VALID","126 MONTE VISTA AVE","126 MONTE VISTA AVE, Charlottesville, VA ",,,,"076",38.0165654,-78.5138829,"2009-08-26 03:25:58","2009-08-26 03:37:02"
262,"191WHITEWOODRD061","VALID","191 WHITEWOOD RD","191 WHITEWOOD RD, Charlottesville, VA ",,,,"061",38.0739630,-78.4931760,"2009-08-26 03:25:58","2009-08-26 03:36:51"
263,"1412EHIGHST077","VALID","1412 E HIGH ST","1412 E HIGH ST, Charlottesville, VA ",,,,"077",38.0332207,-78.4617758,"2009-08-26 03:25:58","2009-08-26 03:36:31"
264,"2000MICHIEDR061","VALID","2000 MICHIE DR","2000 MICHIE DR, Charlottesville, VA ",,,,"061",38.0587610,-78.4874420,"2009-08-26 03:25:58","2009-08-26 03:36:36"
265,"1007STONEWOODDR048","APPROXIMATE","1007 STONEWOOD DR","1007 STONEWOOD DR, Rosena, VA ",,,,"048",38.1041200,-78.3537631,"2009-08-26 03:25:58","2009-08-26 03:36:33"
266,"2030SPOTTSWOODRD061","VALID","2030 SPOTTSWOOD RD","2030 SPOTTSWOOD RD, Charlottesville, VA ",,,,"061",38.0533430,-78.4971300,"2009-08-26 03:25:59","2009-08-26 03:36:49"
267,"718HIGHLANDAVE076","VALID","718 HIGHLAND AVE","718 HIGHLAND AVE, Charlottesville, VA ",,,,"076",38.0179680,-78.5036910,"2009-08-26 03:25:59","2009-08-26 03:36:40"
268,"2232CRAIGSSTORERD084","VALID","2232 CRAIGS STORE RD","2232 CRAIGS STORE RD, Durrett Town, VA ",,,,"084",37.9639454,-78.7756301,"2009-08-26 03:25:59","2009-08-26 03:36:44"
269,"150GOODMANST077","VALID","150 GOODMAN ST","150 GOODMAN ST, Charlottesville, VA ",,,,"077",38.0258024,-78.4755905,"2009-08-26 03:25:59","2009-08-26 03:37:05"
270,"418AVONST077","VALID","418 AVON ST","418 AVON ST, Charlottesville, VA ",,,,"077",38.0260785,-78.4779439,"2009-08-26 03:25:59","2009-08-26 03:36:47"
271,"104CAMELOTDR032","APPROXIMATE","104 CAMELOT DR","104 CAMELOT DR, Crimora, VA ",,,,"032",38.1455028,-78.7709225,"2009-08-26 03:25:59","2009-08-26 03:36:53"
272,"16ELLIEWOODAVE076","VALID","16 ELLIEWOOD AVE","16 ELLIEWOOD AVE, Charlottesville, VA ",,,,"076",38.0364460,-78.5004970,"2009-08-26 03:25:59","2009-08-26 03:37:10"
273,"275VALLEYST131","VALID","275 VALLEY ST","275 VALLEY ST, Scottsville, VA ",,,,"131",37.7985122,-78.4949479,"2009-08-26 03:25:59","2009-08-26 03:37:12"
274,"2775HYDRAULICROAD061","VALID","2775 HYDRAULIC ROAD","2775 HYDRAULIC ROAD, Charlottesville, VA ",,,,"061",38.0743326,-78.4988978,"2009-08-26 03:25:59","2009-08-26 03:36:56"
275,"2685BARRACKSRD060","VALID","2685 BARRACKS RD","2685 BARRACKS RD, Charlottesville, VA ",,,,"060",38.0630448,-78.5138476,"2009-08-26 03:26:00","2009-08-26 03:36:58"
276,"3975PLANKRD099","VALID","3975 PLANK RD","3975 PLANK RD, North Garden, VA ",,,,"099",37.9549682,-78.6546003,"2009-08-26 03:26:00","2009-08-26 03:37:00"
277,"805IRISHRD130","VALID","805 IRISH RD","805 IRISH RD, Scottsville, VA ",,,,"130",37.8081210,-78.5285880,"2009-08-26 03:26:00","2009-08-26 03:37:19"
278,"2217COMMONWEALTHDR061","VALID","2217 COMMONWEALTH DR","2217 COMMONWEALTH DR, Charlottesville, VA ",,,,"061",38.0710253,-78.4912740,"2009-08-26 03:26:00","2009-08-26 03:37:14"
279,"4THSTSWOAKST077","APPROXIMATE","4TH ST SW&OAK ST","4TH ST SW & OAK ST, Charlottesville, VA ",,,,"077",38.0210052,-78.4788893,"2009-08-26 03:26:03","2009-08-26 03:37:07"
280,"1131STCLAIRAVE077","APPROXIMATE","1131 ST CLAIR AVE","1131 ST CLAIR AVE, Charlottesville, VA ",,,,"077",38.0210052,-78.4788893,"2009-08-26 03:26:03","2009-08-26 03:37:28"
281,"1435LANETOWNRD055","VALID","1435 LANETOWN RD","1435 LANETOWN RD, Crozet, VA ",,,,"055",38.0748220,-78.7197210,"2009-08-26 03:26:03","2009-08-26 03:37:25"
282,"160WAHOOWAY076","APPROXIMATE","160 WAHOO WAY","160 WAHOO WAY, Charlottesville, VA ",,,,"076",38.0210053,-78.5205438,"2009-08-26 03:26:03","2009-08-26 03:37:30"
283,"767DENALIWAY","INVALID","767 DENALI WAY","767 DENALI WAY, Charlottesville, VA ",,,,"000",38.0377640,-78.4892600,"2009-08-26 03:26:03","2009-08-26 03:37:16"
284,"1800STONYPOINTRD062","VALID","1800 STONY POINT RD","1800 STONY POINT RD, Key West, VA ",,,,"062",38.0521545,-78.4395230,"2009-08-26 03:26:03","2009-08-26 03:37:23"
285,"1801HYDRAULICRD061","VALID","1801 HYDRAULIC RD","1801 HYDRAULIC RD, Charlottesville, VA ",,,,"061",38.0587715,-78.4891066,"2009-08-26 03:26:03","2009-08-26 03:37:21"
286,"1490PANTOPSMOUNTAINPL078","VALID","1490 PANTOPS MOUNTAIN PL","1490 PANTOPS MOUNTAIN PL, Charlottesville, VA ",,,,"078",38.0275850,-78.4385820,"2009-08-26 03:26:04","2009-08-26 03:37:37"
287,"5578ROLLINGRDS115","VALID","5578 ROLLING RD S","5578 ROLLING RD S, Woodridge, VA ",,,,"115",37.8985181,-78.4367595,"2009-08-26 03:26:04","2009-08-26 03:37:34"
288,"518BARRACKSFARMRD044","VALID","518 BARRACKS FARM RD","518 BARRACKS FARM RD, Clearview Meadows, VA ",,,,"044",38.0983291,-78.5134971,"2009-08-26 03:26:04","2009-08-26 03:37:32"
289,"EDGEMONTRDMCCORMICKRD076","APPROXIMATE","EDGEMONT RD&MCCORMICK RD","EDGEMONT RD & MCCORMICK RD, Charlottesville, VA ",,,,"076",38.0210053,-78.5205438,"2009-08-26 03:26:04","2009-08-26 03:37:46"
290,"706FORRESTST090","APPROXIMATE","706 FORREST ST","706 FORREST ST, Charlottesville, VA ",,,,"090",37.9794031,-78.5205323,"2009-08-26 03:26:04","2009-08-26 03:37:39"
291,"1701BURNLEYAVE061","VALID","1701 BURNLEY AVE","1701 BURNLEY AVE, Charlottesville, VA ",,,,"061",38.0428628,-78.4973751,"2009-08-26 03:26:04","2009-08-26 03:37:49"
292,"712GRAVESST077","VALID","712 GRAVES ST","712 GRAVES ST, Charlottesville, VA ",,,,"077",38.0271527,-78.4758885,"2009-08-26 03:26:04","2009-08-26 03:37:43"
293,"8026THSTSE077","VALID","802 6TH ST SE","802 6TH ST SE, Charlottesville, VA ",,,,"077",38.0239490,-78.4813300,"2009-08-26 03:26:04","2009-08-26 03:38:11"
294,"409GARRETTST077","VALID","409 GARRETT ST","409 GARRETT ST, Charlottesville, VA ",,,,"077",38.0277617,-78.4798151,"2009-08-26 03:26:04","2009-08-26 03:37:41"
295,"3015SCOTTSVILLERD102","APPROXIMATE","3015 SCOTTSVILLE RD","3015 SCOTTSVILLE RD, Redland, VA ",,,,"102",37.9378002,-78.5205209,"2009-08-26 03:26:04","2009-08-26 03:37:51"
296,"5046SEMINOLETR","APPROXIMATE","5046 SEMINOLE TR","5046 SEMINOLE TR, Charlottesville, VA ",,,,"000",38.1649680,-78.4141484,"2009-08-26 03:26:05","2009-08-26 03:38:04"
297,"837RIDGEST077","VALID","837 RIDGE ST","837 RIDGE ST, Charlottesville, VA ",,,,"077",38.0208090,-78.4928930,"2009-08-26 03:26:05","2009-08-26 03:37:53"
298,"1306PRESTONAVE077","APPROXIMATE","1306 PRESTON AVE","1306 PRESTON AVE, Charlottesville, VA ",,,,"077",38.0210052,-78.4788893,"2009-08-26 03:26:05","2009-08-26 03:37:55"
299,"1219HOLMESAVE061","VALID","1219 HOLMES AVE","1219 HOLMES AVE, Charlottesville, VA ",,,,"061",38.0474960,-78.4612240,"2009-08-26 03:26:05","2009-08-26 03:37:57"
300,"1121MONACANTRAILRD045","APPROXIMATE","1121 MONACAN TRAIL RD","1121 MONACAN TRAIL RD, Charlottesville, VA ",,,,"045",38.1042077,-78.4788658,"2009-08-26 03:26:05","2009-08-26 03:38:02"
301,"2005MARTINKINGSRD115","VALID","2005 MARTIN KINGS RD","2005 MARTIN KINGS RD, Woodridge, VA ",,,,"115",37.8980114,-78.4274285,"2009-08-26 03:26:05","2009-08-26 03:38:00"
302,"2368AUSTINDR032","APPROXIMATE","2368 AUSTIN DR","2368 AUSTIN DR, Crimora, VA ",,,,"032",38.1455028,-78.7709225,"2009-08-26 03:26:05","2009-08-26 03:38:09"
303,"2002NDSTNE077","VALID","200 2ND ST NE","200 2ND ST NE, Charlottesville, VA ",,,,"077",38.0313052,-78.4803760,"2009-08-26 03:26:05","2009-08-26 03:38:22"
304,"2100IVYRD076","APPROXIMATE","2100 IVY RD","2100 IVY RD, Charlottesville, VA ",,,,"076",38.0210053,-78.5205438,"2009-08-26 03:26:09","2009-08-26 03:38:07"
305,"2315GREENBRIERDR061","VALID","2315 GREENBRIER DR","2315 GREENBRIER DR, Charlottesville, VA ",,,,"061",38.0667905,-78.4676015,"2009-08-26 03:26:09","2009-08-26 03:38:31"
306,"1000LINDENAVE077","VALID","1000 LINDEN AVE","1000 LINDEN AVE, Charlottesville, VA ",,,,"077",38.0139375,-78.4703377,"2009-08-26 03:26:09","2009-08-26 03:38:25"
307,"1080BUCKMTNFORDLN018","APPROXIMATE","1080 BUCK MTN FORD LN","1080 BUCK MTN FORD LN, Windrift, VA ",,,,"018",38.1874075,-78.5205897,"2009-08-26 03:26:09","2009-08-26 03:38:13"
308,"160MCCORMICKRDUVA076","APPROXIMATE","160 MCCORMICK RD - UVA","160 MCCORMICK RD - UVA, Charlottesville, VA ",,,,"076",38.0210053,-78.5205438,"2009-08-26 03:26:09","2009-08-26 03:38:54"
309,"417WMAINST077","VALID","417 W MAIN ST","417 W MAIN ST, Charlottesville, VA ",,,,"077",38.0307371,-78.4869161,"2009-08-26 03:26:09","2009-08-26 03:38:16"
310,"9261STSTS077","VALID","926 1ST ST S","926 1ST ST S, Charlottesville, VA ",,,,"077",38.0227626,-78.4859948,"2009-08-26 03:26:09","2009-08-26 03:38:18"
311,"1496BUCKMOUNTAINRD030","APPROXIMATE","1496 BUCK MOUNTAIN RD","1496 BUCK MOUNTAIN RD, Barboursville, VA ",,,,"030",38.1455890,-78.2702335,"2009-08-26 03:26:10","2009-08-26 03:38:20"
312,"1550PANTOPSMOUNTAINPL078","VALID","1550 PANTOPS MOUNTAIN PL","1550 PANTOPS MOUNTAIN PL, Charlottesville, VA ",,,,"078",38.0264560,-78.4360110,"2009-08-26 03:26:10","2009-08-26 03:38:34"
313,"2055BOULDERSRD032","APPROXIMATE","2055 BOULDERS RD","2055 BOULDERS RD, Crimora, VA ",,,,"032",38.1455028,-78.7709225,"2009-08-26 03:26:10","2009-08-26 03:38:40"
314,"810WMAINST077","VALID","810 W MAIN ST","810 W MAIN ST, Charlottesville, VA ",,,,"077",38.0317082,-78.4909440,"2009-08-26 03:26:10","2009-08-26 03:38:27"
315,"190MCCORMICKRD076","VALID","190 MCCORMICK RD","190 MCCORMICK RD, Charlottesville, VA ",,,,"076",38.0351650,-78.5137040,"2009-08-26 03:26:10","2009-08-26 03:38:29"
316,"206CHAUCERRD060","VALID","206 CHAUCER RD","206 CHAUCER RD, Charlottesville, VA ",,,,"060",38.0580190,-78.5092550,"2009-08-26 03:26:10","2009-08-26 03:38:49"
317,"925CHARLTONAVE077","VALID","925 CHARLTON AVE","925 CHARLTON AVE, Charlottesville, VA ",,,,"077",38.0394590,-78.4888130,"2009-08-26 03:26:10","2009-08-26 03:38:47"
318,"1700EMMETSTN061","VALID","1700 EMMET ST N","1700 EMMET ST N, Charlottesville, VA ",,,,"061",38.0589040,-78.4934630,"2009-08-26 03:26:10","2009-08-26 03:38:36"
319,"BRANCHLANDSBLVDHILLSDALEDR061","VALID","BRANCHLANDS BLVD&HILLSDALE DR","BRANCHLANDS BLVD & HILLSDALE DR, Charlottesville, VA ",,,,"061",38.0732880,-78.4797780,"2009-08-26 03:26:10","2009-08-26 03:38:38"
320,"5469MURRAYSLN109","VALID","5469 MURRAYS LN","5469 MURRAYS LN, Covesville, VA ",,,,"109",37.9067920,-78.6893990,"2009-08-26 03:26:10","2009-08-26 03:38:45"
321,"5327MONACANTRAILRD045","APPROXIMATE","5327 MONACAN TRAIL RD","5327 MONACAN TRAIL RD, Charlottesville, VA ",,,,"045",38.1042077,-78.4788658,"2009-08-26 03:26:11","2009-08-26 03:38:43"
322,"506RIDGEST077","VALID","506 RIDGE ST","506 RIDGE ST, Charlottesville, VA ",,,,"077",38.0268460,-78.4865130,"2009-08-26 03:26:11","2009-08-26 03:38:52"
323,"3527LOFTLANDDR031","APPROXIMATE","3527 LOFTLAND DR","3527 LOFTLAND DR, Gordonsville, VA ",,,,"031",38.1455015,-78.2285096,"2009-08-26 03:26:11","2009-08-26 03:38:58"
324,"644MAXFIELDRD065","VALID","644 MAXFIELD RD","644 MAXFIELD RD, Cismont, VA ",,,,"065",38.0445268,-78.2921408,"2009-08-26 03:26:11","2009-08-26 03:39:03"
325,"2337COMMONWEALTHDR061","VALID","2337 COMMONWEALTH DR","2337 COMMONWEALTH DR, Charlottesville, VA ",,,,"061",38.0738180,-78.4870390,"2009-08-26 03:26:11","2009-08-26 03:38:56"
326,"2667ALDERSGATEWAY","INVALID","2667 ALDERSGATE WAY","2667 ALDERSGATE WAY, Charlottesville, VA ",,,,"000",38.0377640,-78.4892600,"2009-08-26 03:26:11","2009-08-26 03:39:01"
327,"JEFFERSONMILLLNJEFFERSONMI123","VALID","JEFFERSON MILL LN&JEFFERSON MI","JEFFERSON MILL LN & JEFFERSON MI, Stony Point, VA ",,,,"123",37.8412450,-78.4770520,"2009-08-26 03:26:11","2009-08-26 03:39:08"
328,"2200JEFFERSONPARKAVE032","APPROXIMATE","2200 JEFFERSON PARK AVE","2200 JEFFERSON PARK AVE, Crimora, VA ",,,,"032",38.1455028,-78.7709225,"2009-08-26 03:26:11","2009-08-26 03:39:14"
329,"7730FAIRVIEWFARM130","VALID","7730 FAIRVIEW FARM","7730 FAIRVIEW FARM, Scottsville, VA ",,,,"130",37.8233779,-78.5140133,"2009-08-26 03:26:11","2009-08-26 03:39:05"
330,"MONTICELLORDCARLTONRD077","APPROXIMATE","MONTICELLO RD&CARLTON RD","MONTICELLO RD & CARLTON RD, Charlottesville, VA ",,,,"077",38.0210052,-78.4788893,"2009-08-26 03:26:14","2009-08-26 03:39:24"
331,"649OAKHILLCT076","VALID","649 OAK HILL CT","649 OAK HILL CT, Charlottesville, VA ",,,,"076",38.0047922,-78.5244418,"2009-08-26 03:26:14","2009-08-26 03:39:10"
332,"5010PLANKRD087","APPROXIMATE","5010 PLANK RD","5010 PLANK RD, Crossroads, VA ",,,,"087",37.9793162,-78.6454260,"2009-08-26 03:26:14","2009-08-26 03:39:17"
333,"5888ROACHRDG019","APPROXIMATE","5888 ROACH RDG","5888 ROACH RDG, Frays Mountain Estates, VA ",,,,"019",38.1874074,-78.4788422,"2009-08-26 03:26:14","2009-08-26 03:39:12"
334,"400WOODBROOKDR045","VALID","400 WOODBROOK DR","400 WOODBROOK DR, Charlottesville, VA ",,,,"045",38.0905590,-78.4714000,"2009-08-26 03:26:14","2009-08-26 03:39:26"
335,"2510WESTERLYAVE076","VALID","2510 WESTERLY AVE","2510 WESTERLY AVE, Charlottesville, VA ",,,,"076",38.0237500,-78.5213490,"2009-08-26 03:26:14","2009-08-26 03:39:19"
336,"267TURKEYRIDGERD073","VALID","267 TURKEY RIDGE RD","267 TURKEY RIDGE RD, Peacock Hill, VA ",,,,"073",38.0371550,-78.6494800,"2009-08-26 03:26:14","2009-08-26 03:39:28"
337,"34010THSTNW077","VALID","340 10TH ST NW","340 10TH ST NW, Charlottesville, VA ",,,,"077",38.0366140,-78.4922390,"2009-08-26 03:26:14","2009-08-26 03:39:33"
338,"5638THREENOTCHDRD056","VALID","5638 THREE NOTCH'D RD","5638 THREE NOTCH'D RD, Crozet, VA ",,,,"056",38.0699900,-78.7004690,"2009-08-26 03:26:15","2009-08-26 03:39:21"
339,"1145MERIWETHERST077","VALID","1145 MERIWETHER ST","1145 MERIWETHER ST, Charlottesville, VA ",,,,"077",38.0309530,-78.4676690,"2009-08-26 03:26:15","2009-08-26 03:39:44"
340,"1112MONTICELLORD077","VALID","1112 MONTICELLO RD","1112 MONTICELLO RD, Charlottesville, VA ",,,,"077",38.0197908,-78.4729575,"2009-08-26 03:26:15","2009-08-26 03:39:31"
341,"466LAMBETHCOMMONSBLDG","APPROXIMATE","466 LAMBETH COMMONS - BLDG","466 LAMBETH COMMONS - BLDG, Charlottesville, VA ",,,,"000",38.0418670,-78.5043150,"2009-08-26 03:26:15","2009-08-26 03:39:40"
342,"2718MCELROYDR076","VALID","2718 MCELROY DR","2718 MCELROY DR, Charlottesville, VA ",,,,"076",38.0149720,-78.5165710,"2009-08-26 03:26:15","2009-08-26 03:39:51"
343,"GREENE4","APPROXIMATE","GREENE 4","GREENE 4, Charlottesville, VA ",,,,"000",38.0726845,-78.5006308,"2009-08-26 03:26:15","2009-08-26 03:39:35"
344,"194LAKECLUBCT077","VALID","194 LAKE CLUB CT","194 LAKE CLUB CT, Charlottesville, VA ",,,,"077",38.0034840,-78.4927010,"2009-08-26 03:26:15","2009-08-26 03:39:49"
345,"5235QUALITYROW111","APPROXIMATE","5235 QUALITY ROW","5235 QUALITY ROW, Powell Corner, VA ",,,,"111",37.8961535,-78.6036794,"2009-08-26 03:26:15","2009-08-26 03:39:37"
346,"600WATSONAVE077","VALID","600 WATSON AVE","600 WATSON AVE, Charlottesville, VA ",,,,"077",38.0406570,-78.4713180,"2009-08-26 03:26:19","2009-08-26 03:39:42"
347,"SEMINOLETRLHYDRAULICRD061","APPROXIMATE","SEMINOLE TRL&HYDRAULIC RD","SEMINOLE TRL & HYDRAULIC RD, Charlottesville, VA ",,,,"061",38.0626068,-78.4788775,"2009-08-26 03:26:19","2009-08-26 03:39:57"
348,"730ORANGEDALEAVE077","VALID","730 ORANGEDALE AVE","730 ORANGEDALE AVE, Charlottesville, VA ",,,,"077",38.0233630,-78.4961750,"2009-08-26 03:26:19","2009-08-26 03:40:11"
349,"4312DICKERSONRD032","APPROXIMATE","4312 DICKERSON RD","4312 DICKERSON RD, Crimora, VA ",,,,"032",38.1455028,-78.7709225,"2009-08-26 03:26:19","2009-08-26 03:39:46"
350,"1159EMMETST061","VALID","1159 EMMET ST","1159 EMMET ST, Charlottesville, VA ",,,,"061",38.0523471,-78.4995911,"2009-08-26 03:26:19","2009-08-26 03:39:54"
351,"2525POORHOUSERD074","APPROXIMATE","2525 POORHOUSE RD","2525 POORHOUSE RD, Langford, VA ",,,,"074",38.0209619,-78.6038526,"2009-08-26 03:26:19","2009-08-26 03:39:59"
352,"2222BANBURYST061","VALID","2222 BANBURY ST","2222 BANBURY ST, Charlottesville, VA ",,,,"061",38.0616110,-78.4667100,"2009-08-26 03:26:19","2009-08-26 03:40:07"
353,"1470PANTOPSMOUNTAINPL078","VALID","1470 PANTOPS MOUNTAIN PL","1470 PANTOPS MOUNTAIN PL, Charlottesville, VA ",,,,"078",38.0272762,-78.4381810,"2009-08-26 03:26:20","2009-08-26 03:40:49"
354,"1610OWENSVILLEROAD058","VALID","1610 OWENSVILLE ROAD","1610 OWENSVILLE ROAD, Ivy, VA ",,,,"058",38.0795081,-78.5983173,"2009-08-26 03:26:20","2009-08-26 03:40:05"
355,"427WOODHAVENCT076","VALID","427 WOODHAVEN CT","427 WOODHAVEN CT, Charlottesville, VA ",,,,"076",38.0023850,-78.5119030,"2009-08-26 03:26:20","2009-08-26 03:40:20"
356,"1418EMMETST061","VALID","1418 EMMET ST","1418 EMMET ST, Charlottesville, VA ",,,,"061",38.0557813,-78.4964585,"2009-08-26 03:26:20","2009-08-26 03:40:09"
357,"100WILTONPASTURELN078","VALID","100 WILTON PASTURE LN","100 WILTON PASTURE LN, Charlottesville, VA ",,,,"078",38.0356130,-78.4480400,"2009-08-26 03:26:20","2009-08-26 03:40:35"
358,"1170PINEHAVENCT061","VALID","1170 PINE HAVEN CT","1170 PINE HAVEN CT, Charlottesville, VA ",,,,"061",38.0683110,-78.4680710,"2009-08-26 03:26:20","2009-08-26 03:40:14"
359,"300PAGEST131","VALID","300 PAGE ST","300 PAGE ST, Scottsville, VA ",,,,"131",37.7979760,-78.4977260,"2009-08-26 03:26:20","2009-08-26 03:40:18"
360,"5411MURRAYSLN109","VALID","5411 MURRAYS LN","5411 MURRAYS LN, Covesville, VA ",,,,"109",37.9088510,-78.6872810,"2009-08-26 03:26:20","2009-08-26 03:40:16"
361,"1232OAKHILLPL076","VALID","1232 OAK HILL PL","1232 OAK HILL PL, Charlottesville, VA ",,,,"076",38.0052677,-78.5247825,"2009-08-26 03:26:21","2009-08-26 03:40:26"
362,"5THSTSWBAILEYRD077","APPROXIMATE","5TH ST SW&BAILEY RD","5TH ST SW & BAILEY RD, Charlottesville, VA ",,,,"077",38.0210052,-78.4788893,"2009-08-26 03:26:21","2009-08-26 03:40:23"
363,"1718RICHMONDRD078","VALID","1718 RICHMOND RD","1718 RICHMOND RD, Charlottesville, VA ",,,,"078",38.0255219,-78.4370997,"2009-08-26 03:26:21","2009-08-26 03:40:28"
364,"242OLDLYNCHBURGRD076","VALID","242 OLD LYNCHBURG RD","242 OLD LYNCHBURG RD, Charlottesville, VA ",,,,"076",38.0171595,-78.5142217,"2009-08-26 03:26:21","2009-08-26 03:40:30"
365,"132HARVESTDR060","VALID","132 HARVEST DR","132 HARVEST DR, Charlottesville, VA ",,,,"060",38.0498363,-78.5203624,"2009-08-26 03:26:24","2009-08-26 03:40:40"
366,"1702GORDONAV077","APPROXIMATE","1702 GORDON AV","1702 GORDON AV, Charlottesville, VA ",,,,"077",38.0210052,-78.4788893,"2009-08-26 03:26:24","2009-08-26 03:40:33"
367,"509EASTBROOKDR045","VALID","509 EASTBROOK DR","509 EASTBROOK DR, Charlottesville, VA ",,,,"045",38.0870380,-78.4625490,"2009-08-26 03:26:24","2009-08-26 03:40:42"
368,"2310CRESTMONTAVE076","VALID","2310 CRESTMONT AVE","2310 CRESTMONT AVE, Charlottesville, VA ",,,,"076",38.0215260,-78.5112280,"2009-08-26 03:26:24","2009-08-26 03:40:44"
369,"2480SERPENTINELN063","VALID","2480 SERPENTINE LN","2480 SERPENTINE LN, Eastham, VA ",,,,"063",38.0670240,-78.4132970,"2009-08-26 03:26:24","2009-08-26 03:40:38"
370,"1536VIRGINIAAVE077","APPROXIMATE","1536 VIRGINIA AVE","1536 VIRGINIA AVE, Charlottesville, VA ",,,,"077",38.0210052,-78.4788893,"2009-08-26 03:26:25","2009-08-26 03:41:19"
371,"2119BERKMARDR045","APPROXIMATE","2119 BERKMAR DR","2119 BERKMAR DR, Charlottesville, VA ",,,,"045",38.1042077,-78.4788658,"2009-08-26 03:26:25","2009-08-26 03:40:47"
372,"4907PLANKRD099","VALID","4907 PLANK RD","4907 PLANK RD, North Garden, VA ",,,,"099",37.9352720,-78.6371770,"2009-08-26 03:26:25","2009-08-26 03:40:53"
373,"595PETERJEFFERSONPKWY078","VALID","595 PETER JEFFERSON PKWY","595 PETER JEFFERSON PKWY, Charlottesville, VA ",,,,"078",38.0227920,-78.4399470,"2009-08-26 03:26:25","2009-08-26 03:40:58"
374,"2474OLDIVYRD060","VALID","2474 OLD IVY RD","2474 OLD IVY RD, Charlottesville, VA ",,,,"060",38.0494390,-78.5237083,"2009-08-26 03:26:25","2009-08-26 03:40:51"
375,"1025RIORDE061","VALID","1025 RIO RD E","1025 RIO RD E, Charlottesville, VA ",,,,"061",38.0640064,-78.4636011,"2009-08-26 03:26:25","2009-08-26 03:40:56"
376,"3954REDHILLRD101","APPROXIMATE","3954 RED HILL RD","3954 RED HILL RD, Redland, VA ",,,,"101",37.9377858,-78.5621290,"2009-08-26 03:26:25","2009-08-26 03:41:11"
377,"1200SEMINOLETRL061","VALID","1200 SEMINOLE TRL","1200 SEMINOLE TRL, Charlottesville, VA ",,,,"061",38.0698342,-78.4848445,"2009-08-26 03:26:25","2009-08-26 03:41:00"
378,"HYDRAULICRDEMMETSTN061","VALID","HYDRAULIC RD&EMMET ST N","HYDRAULIC RD & EMMET ST N, Charlottesville, VA ",,,,"061",38.0682210,-78.4971440,"2009-08-26 03:26:25","2009-08-26 03:41:14"
379,"1168PINEHAVENCT061","VALID","1168 PINE HAVEN CT","1168 PINE HAVEN CT, Charlottesville, VA ",,,,"061",38.0683270,-78.4680060,"2009-08-26 03:26:25","2009-08-26 03:41:02"
380,"310OLDIVYWAY060","VALID","310 OLD IVY WAY","310 OLD IVY WAY, Charlottesville, VA ",,,,"060",38.0465090,-78.5179160,"2009-08-26 03:26:26","2009-08-26 03:41:05"
381,"936HENRYAVE077","VALID","936 HENRY AVE","936 HENRY AVE, Charlottesville, VA ",,,,"077",38.0395997,-78.4876404,"2009-08-26 03:26:26","2009-08-26 03:41:07"
382,"628WATSONAVE077","VALID","628 WATSON AVE","628 WATSON AVE, Charlottesville, VA ",,,,"077",38.0395150,-78.4692610,"2009-08-26 03:26:26","2009-08-26 03:41:09"
383,"1857SCOTTSVILLERD090","VALID","1857 SCOTTSVILLE RD","1857 SCOTTSVILLE RD, Charlottesville, VA ",,,,"090",37.9850430,-78.5030430,"2009-08-26 03:26:26","2009-08-26 03:41:41"
384,"2500AUSTINDR033","APPROXIMATE","2500 AUSTIN DR","2500 AUSTIN DR, Doylesville, VA ",,,,"033",38.1455901,-78.7291986,"2009-08-26 03:26:26","2009-08-26 03:41:17"
385,"2190SHEPHERDSRIDGERD061","VALID","2190 SHEPHERDS RIDGE RD","2190 SHEPHERDS RIDGE RD, Charlottesville, VA ",,,,"061",38.0684130,-78.4598930,"2009-08-26 03:26:26","2009-08-26 03:41:21"
386,"240SHAMROCKRD076","VALID","240 SHAMROCK RD","240 SHAMROCK RD, Charlottesville, VA ",,,,"076",38.0261256,-78.5088495,"2009-08-26 03:26:26","2009-08-26 03:41:35"
387,"2500MILTONRD093","VALID","2500 MILTON RD","2500 MILTON RD, Ashmere, VA ",,,,"093",37.9963591,-78.4002170,"2009-08-26 03:26:26","2009-08-26 03:41:26"
388,"211FOURSEASONSDR061","VALID","211 FOUR SEASONS DR","211 FOUR SEASONS DR, Charlottesville, VA ",,,,"061",38.0795798,-78.4865872,"2009-08-26 03:26:26","2009-08-26 03:41:37"
389,"800EMARKETST077","VALID","800 E MARKET ST","800 E MARKET ST, Charlottesville, VA ",,,,"077",38.0298787,-78.4760607,"2009-08-26 03:26:30","2009-08-26 03:41:23"
390,"1105CHERRYST077","VALID","1105 CHERRY ST","1105 CHERRY ST, Charlottesville, VA ",,,,"077",38.0251250,-78.4707180,"2009-08-26 03:26:30","2009-08-26 03:41:28"
391,"32MILLCREEKDR077","APPROXIMATE","32 MILL CREEK DR","32 MILL CREEK DR, Charlottesville, VA ",,,,"077",38.0210052,-78.4788893,"2009-08-26 03:26:30","2009-08-26 03:41:46"
392,"1614WESTWOODRD061","VALID","1614 WESTWOOD RD","1614 WESTWOOD RD, Charlottesville, VA ",,,,"061",38.0445550,-78.4888260,"2009-08-26 03:26:30","2009-08-26 03:41:30"
393,"503ROCKLANDAVE077","VALID","503 ROCKLAND AVE","503 ROCKLAND AVE, Charlottesville, VA ",,,,"077",38.0198990,-78.4859590,"2009-08-26 03:26:30","2009-08-26 03:41:32"
394,"3550GREENCREEKRD120","APPROXIMATE","3550 GREEN CREEK RD","3550 GREEN CREEK RD, Esmont, VA ",,,,"120",37.8545495,-78.6036217,"2009-08-26 03:26:30","2009-08-26 03:41:48"
395,"913CHERRYAVE077","VALID","913 CHERRY AVE","913 CHERRY AVE, Charlottesville, VA ",,,,"077",38.0289730,-78.4958560,"2009-08-26 03:26:31","2009-08-26 03:41:39"
396,"1050OLDGARTHRD060","VALID","1050 OLD GARTH RD","1050 OLD GARTH RD, Charlottesville, VA ",,,,"060",38.0651280,-78.5345920,"2009-08-26 03:26:31","2009-08-26 03:41:44"
397,"1300BRANCHLANDSDR061","VALID","1300 BRANCHLANDS DR","1300 BRANCHLANDS DR, Charlottesville, VA ",,,,"061",38.0718890,-78.4774330,"2009-08-26 03:26:31","2009-08-26 03:42:37"
398,"5856JEFFERSONMILLRD123","VALID","5856 JEFFERSON MILL RD","5856 JEFFERSON MILL RD, Stony Point, VA ",,,,"123",37.8493945,-78.4669401,"2009-08-26 03:26:31","2009-08-26 03:41:57"
399,"212ALDERMANRD076","VALID","212 ALDERMAN RD","212 ALDERMAN RD, Charlottesville, VA ",,,,"076",38.0401230,-78.5136900,"2009-08-26 03:26:31","2009-08-26 03:41:51"
400,"1381RICHMONDRD078","VALID","1381 RICHMOND RD","1381 RICHMOND RD, Charlottesville, VA ",,,,"078",38.0328863,-78.4481944,"2009-08-26 03:26:31","2009-08-26 03:42:14"
401,"293WINDFIELDCIR076","VALID","293 WINDFIELD CIR","293 WINDFIELD CIR, Charlottesville, VA ",,,,"076",38.0068950,-78.5095020,"2009-08-26 03:26:31","2009-08-26 03:41:53"
402,"381MINORRIDGERD061","VALID","381 MINOR RIDGE RD","381 MINOR RIDGE RD, Charlottesville, VA ",,,,"061",38.0745840,-78.4873980,"2009-08-26 03:26:31","2009-08-26 03:42:06"
403,"4700DICKWOODSRD073","APPROXIMATE","4700 DICK WOODS RD","4700 DICK WOODS RD, Peacock Hill, VA ",,,,"073",38.0209183,-78.6455070,"2009-08-26 03:26:31","2009-08-26 03:41:55"
404,"1801SEMINOLETRL045","VALID","1801 SEMINOLE TRL","1801 SEMINOLE TRL, Charlottesville, VA ",,,,"045",38.0861659,-78.4711956,"2009-08-26 03:26:31","2009-08-26 03:42:00"
405,"507WESTMORELANDCT046","VALID","507 WESTMORELAND CT","507 WESTMORELAND CT, Charlottesville, VA ",,,,"046",38.0854180,-78.4544530,"2009-08-26 03:26:31","2009-08-26 03:42:02"
406,"200WELLINGTONDR060","VALID","200 WELLINGTON DR","200 WELLINGTON DR, Charlottesville, VA ",,,,"060",38.0466780,-78.5394570,"2009-08-26 03:26:32","2009-08-26 03:42:04"
407,"800EJEFFERSONST077","VALID","800 E JEFFERSON ST","800 E JEFFERSON ST, Charlottesville, VA ",,,,"077",38.0307890,-78.4754360,"2009-08-26 03:26:32","2009-08-26 03:42:11"
408,"3025BERKMARDR045","APPROXIMATE","3025 BERKMAR DR","3025 BERKMAR DR, Charlottesville, VA ",,,,"045",38.1042077,-78.4788658,"2009-08-26 03:26:32","2009-08-26 03:42:09"
409,"1075JAMESRIVERRD136","VALID","1075 JAMES RIVER RD","1075 JAMES RIVER RD, Hatton, VA ",,,,"136",37.7871565,-78.5261629,"2009-08-26 03:26:32","2009-08-26 03:42:21"
410,"1407LEHIGHCIR061","VALID","1407 LEHIGH CIR","1407 LEHIGH CIR, Charlottesville, VA ",,,,"061",38.0577720,-78.4729080,"2009-08-26 03:26:32","2009-08-26 03:42:18"
411,"501COLLEGEDR077","VALID","501 COLLEGE DR","501 COLLEGE DR, Charlottesville, VA ",,,,"077",38.0069350,-78.4835380,"2009-08-26 03:26:32","2009-08-26 03:42:30"
412,"501COLLEGEDRBLDG077","VALID","501 COLLEGE DR - BLDG","501 COLLEGE DR - BLDG, Charlottesville, VA ",,,,"077",38.0069350,-78.4835380,"2009-08-26 03:26:32","2009-08-26 03:42:16"
413,"MONACANTRAILRDTAYLORSGAPR","APPROXIMATE","MONACAN TRAIL RD&TAYLORS GAP R","MONACAN TRAIL RD & TAYLORS GAP R, Charlottesville, VA ",,,,"000",37.9482380,-78.6632620,"2009-08-26 03:26:32","2009-08-26 03:42:39"
414,"113WENDOVERLN062","VALID","113 WENDOVER LN","113 WENDOVER LN, Key West, VA ",,,,"062",38.0625060,-78.4432850,"2009-08-26 03:26:32","2009-08-26 03:42:35"
415,"401MCINTIRERD077","VALID","401 MCINTIRE RD","401 MCINTIRE RD, Charlottesville, VA ",,,,"077",38.0337196,-78.4837261,"2009-08-26 03:26:32","2009-08-26 03:42:28"
416,"1646PARKRIDGEDR056","VALID","1646 PARK RIDGE DR","1646 PARK RIDGE DR, Crozet, VA ",,,,"056",38.0681948,-78.6757057,"2009-08-26 03:26:32","2009-08-26 03:42:51"
417,"1510ECHOHILLFARM059","APPROXIMATE","1510 ECHO HILL FARM","1510 ECHO HILL FARM, Charlottesville, VA ",,,,"059",38.0625924,-78.5622329,"2009-08-26 03:26:32","2009-08-26 03:42:33"
418,"1422CHERRYAVE076","VALID","1422 CHERRY AVE","1422 CHERRY AVE, Charlottesville, VA ",,,,"076",38.0244429,-78.5026979,"2009-08-26 03:26:32","2009-08-26 03:42:48"
419,"618DICEST077","VALID","618 DICE ST","618 DICE ST, Charlottesville, VA ",,,,"077",38.0294020,-78.4906330,"2009-08-26 03:26:33","2009-08-26 03:43:12"
420,"203SPRIGGLNUVA076","APPROXIMATE","203 SPRIGG LN - UVA","203 SPRIGG LN - UVA, Charlottesville, VA ",,,,"076",38.0210053,-78.5205438,"2009-08-26 03:26:33","2009-08-26 03:42:42"
421,"409FAIRWAYAVE077","VALID","409 FAIRWAY AVE","409 FAIRWAY AVE, Charlottesville, VA ",,,,"077",38.0278390,-78.4629640,"2009-08-26 03:26:33","2009-08-26 03:42:44"
422,"1408FORESTSPRINGLN032","APPROXIMATE","1408 FOREST SPRING LN","1408 FOREST SPRING LN, Crimora, VA ",,,,"032",38.1455028,-78.7709225,"2009-08-26 03:26:33","2009-08-26 03:42:46"
423,"5410ALFREDST056","VALID","5410 ALFRED ST","5410 ALFRED ST, Crozet, VA ",,,,"056",38.0616730,-78.6885520,"2009-08-26 03:26:33","2009-08-26 03:43:07"
424,"51017THSTNW076","APPROXIMATE","510 17TH ST NW","510 17TH ST NW, Charlottesville, VA ",,,,"076",38.0210053,-78.5205438,"2009-08-26 03:26:33","2009-08-26 03:42:55"
425,"114GEORGETOWNGRN060","VALID","114 GEORGETOWN GRN","114 GEORGETOWN GRN, Charlottesville, VA ",,,,"060",38.0722080,-78.5012140,"2009-08-26 03:26:33","2009-08-26 03:42:53"
426,"515RAYCHUNTDR076","VALID","515 RAY C HUNT DR","515 RAY C HUNT DR, Charlottesville, VA ",,,,"076",38.0244492,-78.5264247,"2009-08-26 03:26:33","2009-08-26 03:43:09"
427,"6003GORDONSVILLERD065","VALID","6003 GORDONSVILLE RD","6003 GORDONSVILLE RD, Cismont, VA ",,,,"065",38.0611930,-78.3089370,"2009-08-26 03:26:33","2009-08-26 03:42:57"
428,"303EMAINST077","VALID","303 E MAIN ST","303 E MAIN ST, Charlottesville, VA ",,,,"077",38.0302663,-78.4798242,"2009-08-26 03:26:33","2009-08-26 03:43:05"
429,"PROFFITRDPRITCHETTLN033","APPROXIMATE","PROFFIT RD&PRITCHETT LN","PROFFIT RD & PRITCHETT LN, Doylesville, VA ",,,,"033",38.1455901,-78.7291986,"2009-08-26 03:26:34","2009-08-26 03:43:00"
430,"11815THSTSW077","APPROXIMATE","1181 5TH ST SW","1181 5TH ST SW, Charlottesville, VA ",,,,"077",38.0210052,-78.4788893,"2009-08-26 03:26:37","2009-08-26 03:43:03"
431,"975HOLLYRD131","VALID","975 HOLLY RD","975 HOLLY RD, Scottsville, VA ",,,,"131",37.8142050,-78.4907770,"2009-08-26 03:26:38","2009-08-26 03:43:18"
432,"6550ROSELANDFARM055","VALID","6550 ROSELAND FARM","6550 ROSELAND FARM, Crozet, VA ",,,,"055",38.0618122,-78.7299614,"2009-08-26 03:26:38","2009-08-26 03:43:21"
433,"4164THSTNW077","VALID","416 4TH ST NW","416 4TH ST NW, Charlottesville, VA ",,,,"077",38.0341050,-78.4849330,"2009-08-26 03:26:38","2009-08-26 03:43:23"
434,"331612STSW077","VALID","331 6 1/2 ST SW","331 6 1/2 ST SW, Charlottesville, VA ",,,,"077",38.0285970,-78.4911210,"2009-08-26 03:26:38","2009-08-26 03:43:14"
435,"814RAYMONDRD077","VALID","814 RAYMOND RD","814 RAYMOND RD, Charlottesville, VA ",,,,"077",38.0193590,-78.4921510,"2009-08-26 03:26:38","2009-08-26 03:43:16"
436,"1841SIMMONSGAPRD008","VALID","1841 SIMMONS GAP RD","1841 SIMMONS GAP RD, Nortonsville, VA ",,,,"008",38.2400268,-78.5509265,"2009-08-26 03:26:38","2009-08-26 03:43:30"
437,"402MONTICELLOAVE077","VALID","402 MONTICELLO AVE","402 MONTICELLO AVE, Charlottesville, VA ",,,,"077",38.0260190,-78.4815733,"2009-08-26 03:26:38","2009-08-26 03:43:32"
438,"2524FREEUNIONRD043","VALID","2524 FREE UNION RD","2524 FREE UNION RD, Reynard Woods, VA ",,,,"043",38.1055407,-78.5529473,"2009-08-26 03:26:38","2009-08-26 03:43:43"
439,"1614OXFORDRD061","VALID","1614 OXFORD RD","1614 OXFORD RD, Charlottesville, VA ",,,,"061",38.0473280,-78.4880700,"2009-08-26 03:26:38","2009-08-26 03:43:25"
440,"292ALBERTCT061","VALID","292 ALBERT CT","292 ALBERT CT, Charlottesville, VA ",,,,"061",38.0745590,-78.4907530,"2009-08-26 03:26:39","2009-08-26 03:43:27"
441,"7500BATESVILLERD084","APPROXIMATE","7500 BATESVILLE RD","7500 BATESVILLE RD, Durrett Town, VA ",,,,"084",37.9790985,-78.7703192,"2009-08-26 03:26:39","2009-08-26 03:43:54"
442,"1800MONTICELLOAVE077","VALID","1800 MONTICELLO AVE","1800 MONTICELLO AVE, Charlottesville, VA ",,,,"077",38.0151129,-78.4731643,"2009-08-26 03:26:39","2009-08-26 03:43:36"
443,"624RIDGEST077","VALID","624 RIDGE ST","624 RIDGE ST, Charlottesville, VA ",,,,"077",38.0248709,-78.4900083,"2009-08-26 03:26:39","2009-08-26 03:43:34"
444,"553SHADYLN073","VALID","553 SHADY LN","553 SHADY LN, Peacock Hill, VA ",,,,"073",38.0348590,-78.6490310,"2009-08-26 03:26:39","2009-08-26 03:43:39"
445,"200EMAINST077","VALID","200 E MAIN ST","200 E MAIN ST, Charlottesville, VA ",,,,"077",38.0302260,-78.4807370,"2009-08-26 03:26:39","2009-08-26 03:43:41"
446,"416GARRETTST077","VALID","416 GARRETT ST","416 GARRETT ST, Charlottesville, VA ",,,,"077",38.0277035,-78.4797728,"2009-08-26 03:26:39","2009-08-26 03:43:59"
447,"946GRADYAVE077","VALID","946 GRADY AVE","946 GRADY AVE, Charlottesville, VA ",,,,"077",38.0385285,-78.4919060,"2009-08-26 03:26:39","2009-08-26 03:43:50"
448,"1649RIOHILLDR061","VALID","1649 RIO HILL DR","1649 RIO HILL DR, Charlottesville, VA ",,,,"061",38.0816874,-78.4684333,"2009-08-26 03:26:39","2009-08-26 03:44:26"
449,"3100SCOTTSVILLERD102","APPROXIMATE","3100 SCOTTSVILLE RD","3100 SCOTTSVILLE RD, Redland, VA ",,,,"102",37.9378002,-78.5205209,"2009-08-26 03:26:39","2009-08-26 03:43:46"
450,"1220COLEMANCT042","VALID","1220 COLEMAN CT","1220 COLEMAN CT, Mill Ridge, VA ",,,,"042",38.1055270,-78.6172690,"2009-08-26 03:26:40","2009-08-26 03:43:48"
451,"2601JEFFERSONPARKAVE032","APPROXIMATE","2601 JEFFERSON PARK AVE","2601 JEFFERSON PARK AVE, Crimora, VA ",,,,"032",38.1455028,-78.7709225,"2009-08-26 03:26:40","2009-08-26 03:44:12"
452,"10082HATTONFERRYRD136","VALID","10082 HATTON FERRY RD","10082 HATTON FERRY RD, Hatton, VA ",,,,"136",37.7612992,-78.5114915,"2009-08-26 03:26:40","2009-08-26 03:43:52"
453,"500HANOVERST076","VALID","500 HANOVER ST","500 HANOVER ST, Charlottesville, VA ",,,,"076",38.0272560,-78.5008770,"2009-08-26 03:26:40","2009-08-26 03:43:57"
454,"816MONTROSEAVE077","VALID","816 MONTROSE AVE","816 MONTROSE AVE, Charlottesville, VA ",,,,"077",38.0204940,-78.4781050,"2009-08-26 03:26:40","2009-08-26 03:44:06"
455,"816MONTICELLOAVE077","VALID","816 MONTICELLO AVE","816 MONTICELLO AVE, Charlottesville, VA ",,,,"077",38.0232191,-78.4767465,"2009-08-26 03:26:40","2009-08-26 03:44:01"
456,"8731CHESTNUTGROVERD133","VALID","8731 CHESTNUT GROVE RD","8731 CHESTNUT GROVE RD, McCullough, VA ",,,,"133",37.7857520,-78.6351350,"2009-08-26 03:26:47","2009-08-26 03:44:03"
457,"2503HILLWOODPL061","VALID","2503 HILLWOOD PL","2503 HILLWOOD PL, Charlottesville, VA ",,,,"061",38.0662780,-78.4727990,"2009-08-26 03:26:47","2009-08-26 03:44:24"
458,"FONTAINEAVENUEEXTRAYCHUNT076","APPROXIMATE","FONTAINE AVENUE EXT&RAY C HUNT","FONTAINE AVENUE EXT & RAY C HUNT, Charlottesville, VA ",,,,"076",38.0210053,-78.5205438,"2009-08-26 03:26:47","2009-08-26 03:44:10"
459,"9995THSTSW077","VALID","999 5TH ST SW","999 5TH ST SW, Charlottesville, VA ",,,,"077",38.0208790,-78.4947850,"2009-08-26 03:26:47","2009-08-26 03:44:08"
460,"15036THSTSE077","VALID","1503 6TH ST SE","1503 6TH ST SE, Charlottesville, VA ",,,,"077",38.0184949,-78.4854967,"2009-08-26 03:26:47","2009-08-26 03:44:15"
461,"101GEORGETOWNGRN060","VALID","101 GEORGETOWN GRN","101 GEORGETOWN GRN, Charlottesville, VA ",,,,"060",38.0720190,-78.5030620,"2009-08-26 03:26:47","2009-08-26 03:44:17"
462,"3470SEMINOLETRL032","APPROXIMATE","3470 SEMINOLE TRL","3470 SEMINOLE TRL, Crimora, VA ",,,,"032",38.1455028,-78.7709225,"2009-08-26 03:26:48","2009-08-26 03:44:19"
463,"3600THOMASJEFFERSONPKWY106","VALID","3600 THOMAS JEFFERSON PKWY","3600 THOMAS JEFFERSON PKWY, Lake Monticello, VA ",,,,"106",37.9425257,-78.3695393,"2009-08-26 03:26:48","2009-08-26 03:44:21"
464,"302ELKDR078","VALID","302 ELK DR","302 ELK DR, Charlottesville, VA ",,,,"078",38.0403419,-78.4519142,"2009-08-26 03:26:48","2009-08-26 03:44:31"
465,"1435CARTERSMOUNTAINTRL091","APPROXIMATE","1435 CARTERS MOUNTAIN TRL","1435 CARTERS MOUNTAIN TRL, Charlottesville, VA ",,,,"091",37.9794030,-78.4789011,"2009-08-26 03:26:48","2009-08-26 03:44:28"
466,"734MERIONGRN062","APPROXIMATE","734 MERION GRN","734 MERION GRN, Key West, VA ",,,,"062",38.0625921,-78.4371999,"2009-08-26 03:26:48","2009-08-26 03:44:35"
467,"1209PENPARKLN061","VALID","1209 PEN PARK LN","1209 PEN PARK LN, Charlottesville, VA ",,,,"061",38.0503510,-78.4581820,"2009-08-26 03:26:48","2009-08-26 03:44:52"
468,"719SHAMROCKRD076","VALID","719 SHAMROCK RD","719 SHAMROCK RD, Charlottesville, VA ",,,,"076",38.0202050,-78.5009950,"2009-08-26 03:26:48","2009-08-26 03:44:33"
469,"1815STADIUMRDUVA076","APPROXIMATE","1815 STADIUM RD - UVA","1815 STADIUM RD - UVA, Charlottesville, VA ",,,,"076",38.0210053,-78.5205438,"2009-08-26 03:26:48","2009-08-26 03:44:40"
470,"2340PEYTONDR061","VALID","2340 PEYTON DR","2340 PEYTON DR, Charlottesville, VA ",,,,"061",38.0733160,-78.4931280,"2009-08-26 03:26:49","2009-08-26 03:44:37"
471,"102ARBORCRESTDR061","VALID","102 ARBOR CREST DR","102 ARBOR CREST DR, Charlottesville, VA ",,,,"061",38.0718288,-78.4979226,"2009-08-26 03:26:49","2009-08-26 03:44:47"
472,"3827STONYPOINTRD048","APPROXIMATE","3827 STONY POINT RD","3827 STONY POINT RD, Rosena, VA ",,,,"048",38.1041200,-78.3537631,"2009-08-26 03:26:49","2009-08-26 03:44:42"
473,"4155THSTSW077","VALID","415 5TH ST SW","415 5TH ST SW, Charlottesville, VA ",,,,"077",38.0276740,-78.4898880,"2009-08-26 03:26:49","2009-08-26 03:44:56"
474,"1706YORKTOWNDR061","VALID","1706 YORKTOWN DR","1706 YORKTOWN DR, Charlottesville, VA ",,,,"061",38.0578080,-78.4765030,"2009-08-26 03:26:49","2009-08-26 03:44:54"
475,"SEMINOLETRLHILLTOPVIEWLN","APPROXIMATE","SEMINOLE TRL&HILL TOP VIEW LN","SEMINOLE TRL & HILL TOP VIEW LN, Charlottesville, VA ",,,,"000",38.1693060,-78.4110630,"2009-08-26 03:26:49","2009-08-26 03:44:45"
476,"137GREENTURTLELN061","VALID","137 GREEN TURTLE LN","137 GREEN TURTLE LN, Charlottesville, VA ",,,,"061",38.0694600,-78.4937480,"2009-08-26 03:26:49","2009-08-26 03:45:01"
477,"21614THSTNW077","VALID","216 14TH ST NW","216 14TH ST NW, Charlottesville, VA ",,,,"077",38.0353490,-78.4984400,"2009-08-26 03:26:49","2009-08-26 03:44:50"
478,"1309WMAINST077","VALID","1309 W MAIN ST","1309 W MAIN ST, Charlottesville, VA ",,,,"077",38.0336042,-78.4987241,"2009-08-26 03:26:49","2009-08-26 03:44:58"
479,"ELLIOTTAVEAVONST077","APPROXIMATE","ELLIOTT AVE&AVON ST","ELLIOTT AVE & AVON ST, Charlottesville, VA ",,,,"077",38.0210052,-78.4788893,"2009-08-26 03:26:50","2009-08-26 03:45:05"
480,"WATTSPASSAGESTONYPOINTRD048","APPROXIMATE","WATTS PASSAGE&STONY POINT RD","WATTS PASSAGE & STONY POINT RD, Rosena, VA ",,,,"048",38.1041200,-78.3537631,"2009-08-26 03:26:50","2009-08-26 03:45:12"
481,"100YELLOWSTONEDR","INVALID","100 YELLOWSTONE DR","100 YELLOWSTONE DR, Charlottesville, VA ",,,,"000",38.0377640,-78.4892600,"2009-08-26 03:26:50","2009-08-26 03:45:10"
482,"835BROADAXERD073","VALID","835 BROAD AXE RD","835 BROAD AXE RD, Peacock Hill, VA ",,,,"073",38.0333570,-78.6577350,"2009-08-26 03:26:50","2009-08-26 03:45:14"
483,"1113LITTLEHIGHST077","VALID","1113 LITTLE HIGH ST","1113 LITTLE HIGH ST, Charlottesville, VA ",,,,"077",38.0302891,-78.4697014,"2009-08-26 03:26:50","2009-08-26 03:45:03"
484,"I64MM120WB","INVALID","I64 MM120 WB","I64 MM120 WB, Charlottesville, VA ",,,,"000",38.0377640,-78.4892600,"2009-08-26 03:26:50","2009-08-26 03:45:07"
485,"11036THSTSE077","VALID","1103 6TH ST SE","1103 6TH ST SE, Charlottesville, VA ",,,,"077",38.0218250,-78.4832620,"2009-08-26 03:26:53","2009-08-26 03:45:29"
486,"1600RIORDE061","VALID","1600 RIO RD E","1600 RIO RD E, Charlottesville, VA ",,,,"061",38.0770200,-78.4742220,"2009-08-26 03:26:53","2009-08-26 03:45:39"
487,"717ELLIOTTAVE077","VALID","717 ELLIOTT AVE","717 ELLIOTT AVE, Charlottesville, VA ",,,,"077",38.0209290,-78.4798940,"2009-08-26 03:26:53","2009-08-26 03:45:19"
488,"SEMINOLETRLZANRD061","APPROXIMATE","SEMINOLE TRL&ZAN RD","SEMINOLE TRL & ZAN RD, Charlottesville, VA ",,,,"061",38.0626068,-78.4788775,"2009-08-26 03:26:53","2009-08-26 03:45:36"
489,"PROFFITRDRIVERVIEWFARM033","APPROXIMATE","PROFFIT RD&RIVERVIEW FARM","PROFFIT RD & RIVERVIEW FARM, Doylesville, VA ",,,,"033",38.1455901,-78.7291986,"2009-08-26 03:26:53","2009-08-26 03:45:17"
490,"180MCCORMICKRDBLDG076","VALID","180 MCCORMICK RD - BLDG","180 MCCORMICK RD - BLDG, Charlottesville, VA ",,,,"076",38.0351650,-78.5137040,"2009-08-26 03:26:53","2009-08-26 03:45:27"
491,"CRISPELLDRLEEST077","APPROXIMATE","CRISPELL DR&LEE ST","CRISPELL DR & LEE ST, Charlottesville, VA ",,,,"077",38.0210052,-78.4788893,"2009-08-26 03:26:53","2009-08-26 03:45:22"
492,"655RIDGEMONTRD031","APPROXIMATE","655 RIDGEMONT RD","655 RIDGEMONT RD, Gordonsville, VA ",,,,"031",38.1455015,-78.2285096,"2009-08-26 03:26:53","2009-08-26 03:45:24"
493,"6922WILDONGROVERD036","APPROXIMATE","6922 WILDON GROVE RD","6922 WILDON GROVE RD, Millington, VA ",,,,"036",38.1457645,-78.6040149,"2009-08-26 03:26:53","2009-08-26 03:45:33"
494,"843WMAINST077","VALID","843 W MAIN ST","843 W MAIN ST, Charlottesville, VA ",,,,"077",38.0318566,-78.4914024,"2009-08-26 03:26:53","2009-08-26 03:45:31"
495,"621WATSONAVE077","VALID","621 WATSON AVE","621 WATSON AVE, Charlottesville, VA ",,,,"077",38.0403180,-78.4693020,"2009-08-26 03:26:53","2009-08-26 03:46:42"
496,"140EMMETSTN061","APPROXIMATE","140 EMMET ST N","140 EMMET ST N, Charlottesville, VA ",,,,"061",38.0626068,-78.4788775,"2009-08-26 03:26:53","2009-08-26 03:45:52"
497,"4105LEWISANDCLARKDR032","APPROXIMATE","4105 LEWIS AND CLARK DR","4105 LEWIS AND CLARK DR, Crimora, VA ",,,,"032",38.1455028,-78.7709225,"2009-08-26 03:26:54","2009-08-26 03:45:41"
498,"1406VINEST077","VALID","1406 VINE ST","1406 VINE ST, Charlottesville, VA ",,,,"077",38.0202654,-78.4691863,"2009-08-26 03:26:54","2009-08-26 03:45:43"
499,"940LOCUSTAVE077","VALID","940 LOCUST AVE","940 LOCUST AVE, Charlottesville, VA ",,,,"077",38.0389490,-78.4640440,"2009-08-26 03:26:54","2009-08-26 03:46:02"
500,"1302TILMANRD058","VALID","1302 TILMAN RD","1302 TILMAN RD, Ivy, VA ",,,,"058",38.0800977,-78.6048016,"2009-08-26 03:26:54","2009-08-26 03:45:45"
501,"5783SUNRISEACRESST040","VALID","5783 SUNRISE ACRES ST","5783 SUNRISE ACRES ST, Crozet, VA ",,,,"040",38.0844000,-78.7008450,"2009-08-26 03:26:54","2009-08-26 03:45:47"
502,"101TURTLECREEKRD061","VALID","101 TURTLE CREEK RD","101 TURTLE CREEK RD, Charlottesville, VA ",,,,"061",38.0697730,-78.4961100,"2009-08-26 03:26:54","2009-08-26 03:45:50"
503,"1104GRADYAVE077","VALID","1104 GRADY AVE","1104 GRADY AVE, Charlottesville, VA ",,,,"077",38.0391350,-78.4940090,"2009-08-26 03:26:54","2009-08-26 03:46:11"
504,"2826CAMPBELLFARMLN105","VALID","2826 CAMPBELL FARM LN","2826 CAMPBELL FARM LN, Ashmere, VA ",,,,"105",37.9569980,-78.4071520,"2009-08-26 03:26:54","2009-08-26 03:45:54"
505,"505MONROELN076","VALID","505 MONROE LN","505 MONROE LN, Charlottesville, VA ",,,,"076",38.0302660,-78.5034940,"2009-08-26 03:26:54","2009-08-26 03:46:20"
506,"2068WHISPERINGWOODSDR032","APPROXIMATE","2068 WHISPERING WOODS DR","2068 WHISPERING WOODS DR, Crimora, VA ",,,,"032",38.1455028,-78.7709225,"2009-08-26 03:26:59","2009-08-26 03:45:59"
507,"222SHAMROCKRD076","VALID","222 SHAMROCK RD","222 SHAMROCK RD, Charlottesville, VA ",,,,"076",38.0261224,-78.5088583,"2009-08-26 03:26:59","2009-08-26 03:46:06"
508,"123EMAINST077","VALID","123 E MAIN ST","123 E MAIN ST, Charlottesville, VA ",,,,"077",38.0307180,-78.4810920,"2009-08-26 03:26:59","2009-08-26 03:46:04"
509,"760PROSPECTAVE077","VALID","760 PROSPECT AVE","760 PROSPECT AVE, Charlottesville, VA ",,,,"077",38.0224011,-78.4960437,"2009-08-26 03:26:59","2009-08-26 03:46:09"
510,"GRADYAVEPRESTONAVE077","VALID","GRADY AVE&PRESTON AVE","GRADY AVE & PRESTON AVE, Charlottesville, VA ",,,,"077",38.0400290,-78.4958310,"2009-08-26 03:26:59","2009-08-26 03:46:30"
511,"332BRENTWOODRD045","VALID","332 BRENTWOOD RD","332 BRENTWOOD RD, Charlottesville, VA ",,,,"045",38.0846670,-78.4636840,"2009-08-26 03:26:59","2009-08-26 03:46:13"
512,"SEMINOLETRLALBEMARLESQ045","APPROXIMATE","SEMINOLE TRL&ALBEMARLE SQ","SEMINOLE TRL & ALBEMARLE SQ, Charlottesville, VA ",,,,"045",38.1042077,-78.4788658,"2009-08-26 03:26:59","2009-08-26 03:45:57"
513,"1264BRANCHLANDSDR061","VALID","1264 BRANCHLANDS DR","1264 BRANCHLANDS DR, Charlottesville, VA ",,,,"061",38.0712162,-78.4784189,"2009-08-26 03:27:00","2009-08-26 03:46:18"
514,"5906ADVANCEMILLSRD020","VALID","5906 ADVANCE MILLS RD","5906 ADVANCE MILLS RD, Advance Mills, VA ",,,,"020",38.1945177,-78.4375309,"2009-08-26 03:27:00","2009-08-26 03:46:15"
515,"600PETERJEFFERSONPKWY078","VALID","600 PETER JEFFERSON PKWY","600 PETER JEFFERSON PKWY, Charlottesville, VA ",,,,"078",38.0198910,-78.4400290,"2009-08-26 03:27:00","2009-08-26 03:46:25"
516,"229LAKECLUBCT077","VALID","229 LAKE CLUB CT","229 LAKE CLUB CT, Charlottesville, VA ",,,,"077",38.0038715,-78.4889745,"2009-08-26 03:27:00","2009-08-26 03:46:22"
517,"199SPOTNAPRD078","VALID","199 SPOTNAP RD","199 SPOTNAP RD, Charlottesville, VA ",,,,"078",38.0308620,-78.4530100,"2009-08-26 03:27:00","2009-08-26 03:46:27"
518,"BYPASSNBEBOFFRAMPFONTAINE076","FAILED: 602","BYPASS NB/EB OFF RAMP&FONTAINE","BYPASS NB/EB OFF RAMP & FONTAINE, Charlottesville, VA ",,,,"076",,,"2009-08-26 03:27:00","2009-08-26 18:54:47"
519,"2034UNIONMILLSRD094","VALID","2034 UNION MILLS RD","2034 UNION MILLS RD, Running Deer, VA ",,,,"094",37.9869286,-78.3397284,"2009-08-26 03:27:00","2009-08-26 03:46:40"
520,"THURSTONDRWHITEHALLRD040","APPROXIMATE","THURSTON DR&WHITE HALL RD","THURSTON DR & WHITE HALL RD, Crozet, VA ",,,,"040",38.1040626,-78.6873701,"2009-08-26 03:27:00","2009-08-26 03:46:33"
521,"ESMONTRDPORTERSRD128","APPROXIMATE","ESMONT RD&PORTERS RD","ESMONT RD & PORTERS RD, Porters, VA ",,,,"128",37.8129450,-78.6035642,"2009-08-26 03:27:00","2009-08-26 03:46:36"
522,"12016THSTSE077","VALID","1201 6TH ST SE","1201 6TH ST SE, Charlottesville, VA ",,,,"077",38.0210031,-78.4836855,"2009-08-26 03:27:00","2009-08-26 03:46:38"
523,"1110WERTLANDST077","VALID","1110 WERTLAND ST","1110 WERTLAND ST, Charlottesville, VA ",,,,"077",38.0340760,-78.4959060,"2009-08-26 03:27:00","2009-08-26 03:46:51"
524,"808BEAGLELN054","VALID","808 BEAGLE LN","808 BEAGLE LN, Greenwood, VA ",,,,"054",38.0593398,-78.7569584,"2009-08-26 03:27:01","2009-08-26 03:46:49"
525,"1009CARLTONAVE077","VALID","1009 CARLTON AVE","1009 CARLTON AVE, Charlottesville, VA ",,,,"077",38.0245000,-78.4735570,"2009-08-26 03:27:01","2009-08-26 03:46:45"
526,"888WOODLANDSRD044","VALID","888 WOODLANDS RD","888 WOODLANDS RD, Clearview Meadows, VA ",,,,"044",38.1154100,-78.5239840,"2009-08-26 03:27:01","2009-08-26 03:46:47"
527,"11855THSTSW077","APPROXIMATE","1185 5TH ST SW","1185 5TH ST SW, Charlottesville, VA ",,,,"077",38.0210052,-78.4788893,"2009-08-26 03:27:01","2009-08-26 03:47:01"
528,"565MCCORMICKRDUVA076","APPROXIMATE","565 MCCORMICK RD - UVA","565 MCCORMICK RD - UVA, Charlottesville, VA ",,,,"076",38.0210053,-78.5205438,"2009-08-26 03:27:01","2009-08-26 03:46:59"
529,"1633MERIDIANST077","VALID","1633 MERIDIAN ST","1633 MERIDIAN ST, Charlottesville, VA ",,,,"077",38.0152611,-78.4815670,"2009-08-26 03:27:01","2009-08-26 03:47:08"
530,"820HARDYDR077","VALID","820 HARDY DR","820 HARDY DR, Charlottesville, VA ",,,,"077",38.0333449,-78.4909368,"2009-08-26 03:27:01","2009-08-26 03:47:05"
531,"502OLDLYNCHBURGRD076","VALID","502 OLD LYNCHBURG RD","502 OLD LYNCHBURG RD, Charlottesville, VA ",,,,"076",38.0163296,-78.5145776,"2009-08-26 03:27:01","2009-08-26 03:46:53"
532,"RICHMONDRDSTONYPOINTRD078","APPROXIMATE","RICHMOND RD&STONY POINT RD","RICHMOND RD & STONY POINT RD, Charlottesville, VA ",,,,"078",38.0209906,-78.4372349,"2009-08-26 03:27:01","2009-08-26 03:46:56"
533,"5558IRISHRD126","APPROXIMATE","5558 IRISH RD","5558 IRISH RD, Old Dominion, VA ",,,,"126",37.8128436,-78.6866415,"2009-08-26 03:27:07","2009-08-26 03:47:03"
534,"19PEBBLEDR091","VALID","19 PEBBLE DR","19 PEBBLE DR, Charlottesville, VA ",,,,"091",37.9918800,-78.4995040,"2009-08-26 03:27:07","2009-08-26 03:47:19"
535,"504PARKHILL077","VALID","504 PARK HILL","504 PARK HILL, Charlottesville, VA ",,,,"077",38.0405413,-78.4745767,"2009-08-26 03:27:07","2009-08-26 03:47:12"
536,"2000MORTONDR061","VALID","2000 MORTON DR","2000 MORTON DR, Charlottesville, VA ",,,,"061",38.0559440,-78.4945740,"2009-08-26 03:27:07","2009-08-26 03:47:10"
537,"PENPARKLNRIORDE061","VALID","PEN PARK LN&RIO RD E","PEN PARK LN & RIO RD E, Charlottesville, VA ",,,,"061",38.0509510,-78.4588780,"2009-08-26 03:27:07","2009-08-26 03:47:23"
538,"11625THSTSW077","APPROXIMATE","1162 5TH ST SW","1162 5TH ST SW, Charlottesville, VA ",,,,"077",38.0210052,-78.4788893,"2009-08-26 03:27:07","2009-08-26 03:47:14"
539,"2306IVYRD060","VALID","2306 IVY RD","2306 IVY RD, Charlottesville, VA ",,,,"060",38.0464560,-78.5227350,"2009-08-26 03:27:07","2009-08-26 03:47:17"
540,"325TRIANGLECT045","VALID","325 TRIANGLE CT","325 TRIANGLE CT, Charlottesville, VA ",,,,"045",38.0841860,-78.4888670,"2009-08-26 03:27:08","2009-08-26 03:47:27"
541,"472FAULKNERWAYUVA060","APPROXIMATE","472 FAULKNER WAY - UVA","472 FAULKNER WAY - UVA, Charlottesville, VA ",,,,"060",38.0626069,-78.5205552,"2009-08-26 03:27:08","2009-08-26 03:47:34"
542,"5974FABERRD117","APPROXIMATE","5974 FABER RD","5974 FABER RD, Faber, VA ",,,,"117",37.8543757,-78.7283069,"2009-08-26 03:27:08","2009-08-26 03:47:43"
543,"2211HYDRAULICRD061","VALID","2211 HYDRAULIC RD","2211 HYDRAULIC RD, Charlottesville, VA ",,,,"061",38.0636570,-78.4937860,"2009-08-26 03:27:08","2009-08-26 03:47:21"
544,"4472OLDTHREENOTCHDRD057","VALID","4472 OLD THREE NOTCH'D RD","4472 OLD THREE NOTCH'D RD, Ivy Woods, VA ",,,,"057",38.0558698,-78.6363274,"2009-08-26 03:27:08","2009-08-26 03:47:29"
545,"14THSTNWWERTLANDST077","APPROXIMATE","14TH ST NW&WERTLAND ST","14TH ST NW & WERTLAND ST, Charlottesville, VA ",,,,"077",38.0210052,-78.4788893,"2009-08-26 03:27:08","2009-08-26 03:47:32"
546,"2048GARTHRD043","VALID","2048 GARTH RD","2048 GARTH RD, Reynard Woods, VA ",,,,"043",38.1009189,-78.5477820,"2009-08-26 03:27:08","2009-08-26 03:47:41"
547,"1138ROSEHILLDR061","VALID","1138 ROSE HILL DR","1138 ROSE HILL DR, Charlottesville, VA ",,,,"061",38.0425563,-78.4839890,"2009-08-26 03:27:08","2009-08-26 03:48:08"
548,"1708THOMASJEFFERSONPKWY092","VALID","1708 THOMAS JEFFERSON PKWY","1708 THOMAS JEFFERSON PKWY, Simeon, VA ",,,,"092",37.9828790,-78.4311070,"2009-08-26 03:27:08","2009-08-26 03:47:36"
549,"2559ASPENWOODRD046","VALID","2559 ASPENWOOD RD","2559 ASPENWOOD RD, Charlottesville, VA ",,,,"046",38.1065670,-78.4393640,"2009-08-26 03:27:09","2009-08-26 03:47:39"
550,"652PETERJEFFERSONPKWY078","VALID","652 PETER JEFFERSON PKWY","652 PETER JEFFERSON PKWY, Charlottesville, VA ",,,,"078",38.0230211,-78.4360737,"2009-08-26 03:27:09","2009-08-26 03:48:02"
551,"3893STONYPOINTRD048","APPROXIMATE","3893 STONY POINT RD","3893 STONY POINT RD, Rosena, VA ",,,,"048",38.1041200,-78.3537631,"2009-08-26 03:27:09","2009-08-26 03:47:48"
552,"1500CARLTONAVE077","VALID","1500 CARLTON AVE","1500 CARLTON AVE, Charlottesville, VA ",,,,"077",38.0212150,-78.4645162,"2009-08-26 03:27:09","2009-08-26 03:47:45"
553,"117MIMOSADR076","VALID","117 MIMOSA DR","117 MIMOSA DR, Charlottesville, VA ",,,,"076",38.0269324,-78.5214308,"2009-08-26 03:27:09","2009-08-26 03:47:53"
554,"1014RIDGEST077","VALID","1014 RIDGE ST","1014 RIDGE ST, Charlottesville, VA ",,,,"077",38.0179270,-78.4945580,"2009-08-26 03:27:09","2009-08-26 03:47:57"
555,"SEMINOLETRLASHWOODBLVD046","APPROXIMATE","SEMINOLE TRL&ASHWOOD BLVD","SEMINOLE TRL & ASHWOOD BLVD, Charlottesville, VA ",,,,"046",38.1041930,-78.4371649,"2009-08-26 03:27:09","2009-08-26 03:47:50"
556,"1166BLUERIDGEAVE056","VALID","1166 BLUE RIDGE AVE","1166 BLUE RIDGE AVE, Crozet, VA ",,,,"056",38.0688320,-78.7053690,"2009-08-26 03:27:09","2009-08-26 03:47:59"
557,"2312CRESTMONTAVE076","VALID","2312 CRESTMONT AVE","2312 CRESTMONT AVE, Charlottesville, VA ",,,,"076",38.0212690,-78.5115020,"2009-08-26 03:27:09","2009-08-26 03:47:55"
558,"109WMAINST077","VALID","109 W MAIN ST","109 W MAIN ST, Charlottesville, VA ",,,,"077",38.0311670,-78.4817150,"2009-08-26 03:27:10","2009-08-26 03:48:04"
559,"2709JEFFERSONPARKAVE032","APPROXIMATE","2709 JEFFERSON PARK AVE","2709 JEFFERSON PARK AVE, Crimora, VA ",,,,"032",38.1455028,-78.7709225,"2009-08-26 03:27:10","2009-08-26 03:48:13"
560,"908MONTROSEAVE077","VALID","908 MONTROSE AVE","908 MONTROSE AVE, Charlottesville, VA ",,,,"077",38.0200470,-78.4770840,"2009-08-26 03:27:10","2009-08-26 03:48:11"
561,"513EMAINST077","VALID","513 E MAIN ST","513 E MAIN ST, Charlottesville, VA ",,,,"077",38.0298271,-78.4783880,"2009-08-26 03:27:10","2009-08-26 03:48:18"
562,"8088BLENHEIMRD131","VALID","8088 BLENHEIM RD","8088 BLENHEIM RD, Scottsville, VA ",,,,"131",37.8163552,-78.4906223,"2009-08-26 03:27:10","2009-08-26 03:48:06"
563,"840FOUNTAINCT061","VALID","840 FOUNTAIN CT","840 FOUNTAIN CT, Charlottesville, VA ",,,,"061",38.0687831,-78.4687096,"2009-08-26 03:27:10","2009-08-26 03:48:22"
564,"1518EHIGHST077","VALID","1518 E HIGH ST","1518 E HIGH ST, Charlottesville, VA ",,,,"077",38.0337048,-78.4608927,"2009-08-26 03:27:10","2009-08-26 03:48:15"
565,"230WMAINST077","VALID","230 W MAIN ST","230 W MAIN ST, Charlottesville, VA ",,,,"077",38.0308150,-78.4832250,"2009-08-26 03:27:10","2009-08-26 03:48:27"
566,"2324GLENNCT061","VALID","2324 GLENN CT","2324 GLENN CT, Charlottesville, VA ",,,,"061",38.0695919,-78.4724960,"2009-08-26 03:27:10","2009-08-26 03:48:33"
567,"9241STSTS077","VALID","924 1ST ST S","924 1ST ST S, Charlottesville, VA ",,,,"077",38.0228038,-78.4859724,"2009-08-26 03:27:14","2009-08-26 03:48:24"
568,"2840IRISHRD128","VALID","2840 IRISH RD","2840 IRISH RD, Porters, VA ",,,,"128",37.8196133,-78.5839975,"2009-08-26 03:27:14","2009-08-26 03:48:20"
569,"FASHIONSQUAREMALLSE","INVALID","FASHION SQUARE MALL&SE","FASHION SQUARE MALL & SE, Charlottesville, VA ",,,,"000",43.4774940,-83.9754790,"2009-08-26 03:27:14","2009-08-26 03:48:36"
570,"1804INGLEWOODDR061","VALID","1804 INGLEWOOD DR","1804 INGLEWOOD DR, Charlottesville, VA ",,,,"061",38.0650410,-78.4970500,"2009-08-26 03:27:14","2009-08-26 03:48:29"
571,"1294STONYPOINTRD078","VALID","1294 STONY POINT RD","1294 STONY POINT RD, Charlottesville, VA ",,,,"078",38.0346480,-78.4553390,"2009-08-26 03:27:14","2009-08-26 03:48:50"
572,"1613GREENFIELDCT045","VALID","1613 GREENFIELD CT","1613 GREENFIELD CT, Charlottesville, VA ",,,,"045",38.0860860,-78.4755990,"2009-08-26 03:27:14","2009-08-26 03:48:31"
573,"SEMINOLETRLPOLOGROU045","APPROXIMATE","SEMINOLE TRL&POLO GROU","SEMINOLE TRL & POLO GROU, Charlottesville, VA ",,,,"045",38.1042077,-78.4788658,"2009-08-26 03:27:14","2009-08-26 03:48:39"
574,"900NATURALRESOURCES","APPROXIMATE","900 NATURAL RESOURCES","900 NATURAL RESOURCES, Charlottesville, VA ",,,,"000",38.0228410,-78.5310460,"2009-08-26 03:27:15","2009-08-26 03:48:48"
575,"840JAMESRIVERRD136","APPROXIMATE","840 JAMES RIVER RD","840 JAMES RIVER RD, Hatton, VA ",,,,"136",37.7713832,-78.5204753,"2009-08-26 03:27:15","2009-08-26 03:49:04"
576,"304EWATERST077","VALID","304 E WATER ST","304 E WATER ST, Charlottesville, VA ",,,,"077",38.0295551,-78.4803560,"2009-08-26 03:27:15","2009-08-26 03:48:43"
577,"250PANTOPSMOUNTAINR","APPROXIMATE","250 PANTOPS MOUNTAIN R","250 PANTOPS MOUNTAIN R, Charlottesville, VA ",,,,"000",38.0306783,-78.4379902,"2009-08-26 03:27:15","2009-08-26 03:48:41"
578,"603MCINTIRERD077","VALID","603 MCINTIRE RD","603 MCINTIRE RD, Charlottesville, VA ",,,,"077",38.0361139,-78.4802893,"2009-08-26 03:27:15","2009-08-26 03:48:55"
579,"238OLDLYNCHBURGRD076","VALID","238 OLD LYNCHBURG RD","238 OLD LYNCHBURG RD, Charlottesville, VA ",,,,"076",38.0171604,-78.5142208,"2009-08-26 03:27:15","2009-08-26 03:48:46"
580,"1900STONYPOINTRD062","VALID","1900 STONY POINT RD","1900 STONY POINT RD, Key West, VA ",,,,"062",38.0562737,-78.4356930,"2009-08-26 03:27:15","2009-08-26 03:49:33"
581,"510RIDGEST077","VALID","510 RIDGE ST","510 RIDGE ST, Charlottesville, VA ",,,,"077",38.0265100,-78.4867740,"2009-08-26 03:27:15","2009-08-26 03:49:01"
582,"1780MONACANTRAILRD045","APPROXIMATE","1780 MONACAN TRAIL RD","1780 MONACAN TRAIL RD, Charlottesville, VA ",,,,"045",38.1042077,-78.4788658,"2009-08-26 03:27:15","2009-08-26 03:48:52"
583,"1000MONTICELLORD077","VALID","1000 MONTICELLO RD","1000 MONTICELLO RD, Charlottesville, VA ",,,,"077",38.0201760,-78.4730511,"2009-08-26 03:27:15","2009-08-26 03:48:57"
584,"1623MERIDIANST077","VALID","1623 MERIDIAN ST","1623 MERIDIAN ST, Charlottesville, VA ",,,,"077",38.0154593,-78.4814149,"2009-08-26 03:27:15","2009-08-26 03:49:06"
585,"9154HOWARDSVILLETPKE132","APPROXIMATE","9154 HOWARDSVILLE TPKE","9154 HOWARDSVILLE TPKE, Schuyler, VA ",,,,"132",37.7712386,-78.6865378,"2009-08-26 03:27:16","2009-08-26 03:48:59"
